name,address,lat,lng,license_number,hotel_type,source,raw_data
109 Inn Taipei 台北109旅店,100臺北市中正區博愛路36號3樓、7樓,25.0461350,121.5111980,臺北市旅館682號,,一般旅館,"{""_id"": 464, ""_importdate"": {""date"": ""2025-12-29 11:10:45.522340"", ""timezone_type"": 3, ""timezone"": ""Asia/Taipei""}, ""縣市代碼"": ""63000"", ""專用標識編號"": ""臺北市旅館682號"", ""旅館名稱"": ""109 Inn Taipei 台北109旅店"", ""電話或手機號碼"": ""0905-972109"", ""營業地址"": ""100臺北市中正區博愛路36號3樓、7樓"", ""客房最低定價"": ""3500"", ""客房最高定價"": ""50000"", ""房間數"": ""14""}"
?朗旅宿,106臺北市大安區金華街187號2樓、5樓~13樓,25.0301280,121.5276200,臺北市旅館813號,,一般旅館,"{""_id"": 581, ""_importdate"": {""date"": ""2025-12-29 11:10:45.656828"", ""timezone_type"": 3, ""timezone"": ""Asia/Taipei""}, ""縣市代碼"": ""63000"", ""專用標識編號"": ""臺北市旅館813號"", ""旅館名稱"": ""?朗旅宿"", ""電話或手機號碼"": ""(02)23418828"", ""營業地址"": ""106臺北市大安區金華街187號2樓、5樓~13樓"", ""客房最低定價"": ""2400"", ""客房最高定價"": ""20500"", ""房間數"": ""100""}"
?美精旅,100臺北市中正區重慶南路1段111號,25.0295920,121.5155120,臺北市旅館497號,,一般旅館,"{""_id"": 326, ""_importdate"": {""date"": ""2025-12-29 11:10:45.371867"", ""timezone_type"": 3, ""timezone"": ""Asia/Taipei""}, ""縣市代碼"": ""63000"", ""專用標識編號"": ""臺北市旅館497號"", ""旅館名稱"": ""?美精旅"", ""電話或手機號碼"": ""(02)23832088"", ""營業地址"": ""100臺北市中正區重慶南路1段111號"", ""客房最低定價"": ""8000"", ""客房最高定價"": ""16000"", ""房間數"": ""38""}"
MVSA 慕舍酒店,104臺北市中山區建國北路一段61號,25.0507040,121.5371730,臺北市旅館705號,,一般旅館,"{""_id"": 482, ""_importdate"": {""date"": ""2025-12-29 11:10:45.540730"", ""timezone_type"": 3, ""timezone"": ""Asia/Taipei""}, ""縣市代碼"": ""63000"", ""專用標識編號"": ""臺北市旅館705號"", ""旅館名稱"": ""MVSA 慕舍酒店"", ""電話或手機號碼"": ""(02)25006772"", ""營業地址"": ""104臺北市中山區建國北路一段61號"", ""客房最低定價"": ""18800"", ""客房最高定價"": ""36800"", ""房間數"": ""38""}"
WESTGATE HOTEL 永安棧,108臺北市萬華區中華路一段148號1樓、148之1號1樓及150號1至10樓,,,臺北市旅館416號,,一般旅館,"{""_id"": 261, ""_importdate"": {""date"": ""2025-12-29 11:10:45.288113"", ""timezone_type"": 3, ""timezone"": ""Asia/Taipei""}, ""縣市代碼"": ""63000"", ""專用標識編號"": ""臺北市旅館416號"", ""旅館名稱"": ""WESTGATE HOTEL 永安棧"", ""電話或手機號碼"": ""(02)23313161"", ""營業地址"": ""108臺北市萬華區中華路一段148號1樓、148之1號1樓及150號1至10樓"", ""客房最低定價"": ""4000"", ""客房最高定價"": ""50000"", ""房間數"": ""121""}"
一加一旅館,108臺北市萬華區昆明街34號3樓,25.0470060,121.5058820,臺北市旅館076號,,一般旅館,"{""_id"": 40, ""_importdate"": {""date"": ""2025-12-29 11:10:45.012659"", ""timezone_type"": 3, ""timezone"": ""Asia/Taipei""}, ""縣市代碼"": ""63000"", ""專用標識編號"": ""臺北市旅館076號"", ""旅館名稱"": ""一加一旅館"", ""電話或手機號碼"": ""(02)23892886"", ""營業地址"": ""108臺北市萬華區昆明街34號3樓"", ""客房最低定價"": ""1200"", ""客房最高定價"": ""2200"", ""房間數"": ""13""}"
一等好旅店,"105臺北市松山區八德路四段624巷2號B1-1樓,4號2-6樓",,,臺北市旅館130號,,一般旅館,"{""_id"": 79, ""_importdate"": {""date"": ""2025-12-29 11:10:45.065034"", ""timezone_type"": 3, ""timezone"": ""Asia/Taipei""}, ""縣市代碼"": ""63000"", ""專用標識編號"": ""臺北市旅館130號"", ""旅館名稱"": ""一等好旅店"", ""電話或手機號碼"": ""(02)27609255"", ""營業地址"": ""105臺北市松山區八德路四段624巷2號B1-1樓,4號2-6樓"", ""客房最低定價"": ""1500"", ""客房最高定價"": ""6000"", ""房間數"": ""32""}"
三二行館,112臺北市北投區中山路32號,25.1377860,121.5105320,臺北市旅館321號,,一般旅館,"{""_id"": 200, ""_importdate"": {""date"": ""2025-12-29 11:10:45.210830"", ""timezone_type"": 3, ""timezone"": ""Asia/Taipei""}, ""縣市代碼"": ""63000"", ""專用標識編號"": ""臺北市旅館321號"", ""旅館名稱"": ""三二行館"", ""電話或手機號碼"": ""(02)66117888"", ""營業地址"": ""112臺北市北投區中山路32號"", ""客房最低定價"": ""29800"", ""客房最高定價"": ""29800"", ""房間數"": ""5""}"
三隻老虎青年旅館,108臺北市萬華區康定路25巷39號4樓,25.0436410,121.5046020,臺北市旅館429號,,一般旅館,"{""_id"": 271, ""_importdate"": {""date"": ""2025-12-29 11:10:45.298328"", ""timezone_type"": 3, ""timezone"": ""Asia/Taipei""}, ""縣市代碼"": ""63000"", ""專用標識編號"": ""臺北市旅館429號"", ""旅館名稱"": ""三隻老虎青年旅館"", ""電話或手機號碼"": ""(02)23755299"", ""營業地址"": ""108臺北市萬華區康定路25巷39號4樓"", ""客房最低定價"": ""1700"", ""客房最高定價"": ""5200"", ""房間數"": ""7""}"
上華旅館,104臺北市中山區雙城街5號2樓至6樓,25.0636270,121.5244540,臺北市旅館218號,,一般旅館,"{""_id"": 128, ""_importdate"": {""date"": ""2025-12-29 11:10:45.122607"", ""timezone_type"": 3, ""timezone"": ""Asia/Taipei""}, ""縣市代碼"": ""63000"", ""專用標識編號"": ""臺北市旅館218號"", ""旅館名稱"": ""上華旅館"", ""電話或手機號碼"": ""(02)25911190"", ""營業地址"": ""104臺北市中山區雙城街5號2樓至6樓"", ""客房最低定價"": ""4000"", ""客房最高定價"": ""22000"", ""房間數"": ""40""}"
上賓大飯店,104臺北市中山區錦州街23巷4號,25.0606550,121.5250910,臺北市旅館180號,,一般旅館,"{""_id"": 108, ""_importdate"": {""date"": ""2025-12-29 11:10:45.097109"", ""timezone_type"": 3, ""timezone"": ""Asia/Taipei""}, ""縣市代碼"": ""63000"", ""專用標識編號"": ""臺北市旅館180號"", ""旅館名稱"": ""上賓大飯店"", ""電話或手機號碼"": ""(02)25113232"", ""營業地址"": ""104臺北市中山區錦州街23巷4號"", ""客房最低定價"": ""1680"", ""客房最高定價"": ""18800"", ""房間數"": ""50""}"
世方旅居文旅,"104臺北市中山區松江路485號1至5樓,5樓之1-3,6-7樓,7樓之1-5",,,臺北市旅館413號,,一般旅館,"{""_id"": 259, ""_importdate"": {""date"": ""2025-12-29 11:10:45.286291"", ""timezone_type"": 3, ""timezone"": ""Asia/Taipei""}, ""縣市代碼"": ""63000"", ""專用標識編號"": ""臺北市旅館413號"", ""旅館名稱"": ""世方旅居文旅"", ""電話或手機號碼"": ""(02)25025000"", ""營業地址"": ""104臺北市中山區松江路485號1至5樓,5樓之1-3,6-7樓,7樓之1-5 "", ""客房最低定價"": ""3000"", ""客房最高定價"": ""18000"", ""房間數"": ""121""}"
世民酒店台北北門,100臺北市中正區中華路一段3號(1樓至26樓),25.0441280,121.5318020,臺北市旅館618號,,一般旅館,"{""_id"": 410, ""_importdate"": {""date"": ""2025-12-29 11:10:45.464655"", ""timezone_type"": 3, ""timezone"": ""Asia/Taipei""}, ""縣市代碼"": ""63000"", ""專用標識編號"": ""臺北市旅館618號"", ""旅館名稱"": ""世民酒店台北北門"", ""電話或手機號碼"": ""07-10161061"", ""營業地址"": ""100臺北市中正區中華路一段3號(1樓至26樓)"", ""客房最低定價"": ""6000"", ""客房最高定價"": ""20000"", ""房間數"": ""267""}"
丰居旅店北車館,100臺北市中正區重慶南路一段60號,25.0438240,121.5131010,臺北市旅館549號,,一般旅館,"{""_id"": 361, ""_importdate"": {""date"": ""2025-12-29 11:10:45.412783"", ""timezone_type"": 3, ""timezone"": ""Asia/Taipei""}, ""縣市代碼"": ""63000"", ""專用標識編號"": ""臺北市旅館549號"", ""旅館名稱"": ""丰居旅店北車館"", ""電話或手機號碼"": ""(02)23142121"", ""營業地址"": ""100臺北市中正區重慶南路一段60號"", ""客房最低定價"": ""10000"", ""客房最高定價"": ""12000"", ""房間數"": ""23""}"
丰居旅店忠孝館,106臺北市大安區復興南路1段126巷1號3樓(含3樓、3樓夾層、4樓),,,臺北市旅館544號,,一般旅館,"{""_id"": 356, ""_importdate"": {""date"": ""2025-12-29 11:10:45.405883"", ""timezone_type"": 3, ""timezone"": ""Asia/Taipei""}, ""縣市代碼"": ""63000"", ""專用標識編號"": ""臺北市旅館544號"", ""旅館名稱"": ""丰居旅店忠孝館"", ""電話或手機號碼"": ""(02)77116368"", ""營業地址"": ""106臺北市大安區復興南路1段126巷1號3樓(含3樓、3樓夾層、4樓)"", ""客房最低定價"": ""2420"", ""客房最高定價"": ""20000"", ""房間數"": ""21""}"
丰居旅店雙連館,"104臺北市中山區民生東路一段42號2,3樓,-1至-5",,,臺北市旅館447號,,一般旅館,"{""_id"": 287, ""_importdate"": {""date"": ""2025-12-29 11:10:45.319671"", ""timezone_type"": 3, ""timezone"": ""Asia/Taipei""}, ""縣市代碼"": ""63000"", ""專用標識編號"": ""臺北市旅館447號"", ""旅館名稱"": ""丰居旅店雙連館"", ""電話或手機號碼"": ""(02)23112555"", ""營業地址"": ""104臺北市中山區民生東路一段42號2,3樓,-1至-5"", ""客房最低定價"": ""7000"", ""客房最高定價"": ""10000"", ""房間數"": ""47""}"
丹居青旅,108臺北市萬華區漢中街154號,25.0413110,121.5066950,臺北市旅館696號,,一般旅館,"{""_id"": 474, ""_importdate"": {""date"": ""2025-12-29 11:10:45.532439"", ""timezone_type"": 3, ""timezone"": ""Asia/Taipei""}, ""縣市代碼"": ""63000"", ""專用標識編號"": ""臺北市旅館696號"", ""旅館名稱"": ""丹居青旅"", ""電話或手機號碼"": ""0977-066154"", ""營業地址"": ""108臺北市萬華區漢中街154號"", ""客房最低定價"": ""1500"", ""客房最高定價"": ""4000"", ""房間數"": ""11""}"
丹迪旅店-大安森林公園店,106臺北市大安區信義路三段33號3-10樓,25.0337650,121.5346210,臺北市旅館004號,,一般旅館,"{""_id"": 4, ""_importdate"": {""date"": ""2025-12-29 11:10:44.966434"", ""timezone_type"": 3, ""timezone"": ""Asia/Taipei""}, ""縣市代碼"": ""63000"", ""專用標識編號"": ""臺北市旅館004號"", ""旅館名稱"": ""丹迪旅店-大安森林公園店"", ""電話或手機號碼"": ""(02)27076899"", ""營業地址"": ""106臺北市大安區信義路三段33號3-10樓"", ""客房最低定價"": ""12000"", ""客房最高定價"": ""15000"", ""房間數"": ""73""}"
丹迪旅店-天母店,111臺北市士林區中山北路六段728巷2號1-7樓,25.1148540,121.5280930,臺北市旅館301號,,一般旅館,"{""_id"": 184, ""_importdate"": {""date"": ""2025-12-29 11:10:45.192268"", ""timezone_type"": 3, ""timezone"": ""Asia/Taipei""}, ""縣市代碼"": ""63000"", ""專用標識編號"": ""臺北市旅館301號"", ""旅館名稱"": ""丹迪旅店-天母店"", ""電話或手機號碼"": ""(02)28732222"", ""營業地址"": ""111臺北市士林區中山北路六段728巷2號1-7樓"", ""客房最低定價"": ""8000"", ""客房最高定價"": ""10000"", ""房間數"": ""54""}"
丹迪旅店-天津店,104臺北市中山區中山北路一段135巷13號,25.0515230,121.5234160,臺北市旅館252號,,一般旅館,"{""_id"": 149, ""_importdate"": {""date"": ""2025-12-29 11:10:45.151481"", ""timezone_type"": 3, ""timezone"": ""Asia/Taipei""}, ""縣市代碼"": ""63000"", ""專用標識編號"": ""臺北市旅館252號"", ""旅館名稱"": ""丹迪旅店-天津店"", ""電話或手機號碼"": ""(02)25415788"", ""營業地址"": ""104臺北市中山區中山北路一段135巷13號"", ""客房最低定價"": ""10000"", ""客房最高定價"": ""12000"", ""房間數"": ""30""}"
乃晶旅社,108臺北市萬華區西園路一段168號12樓,25.0368170,121.4992590,臺北市旅館103號,,一般旅館,"{""_id"": 58, ""_importdate"": {""date"": ""2025-12-29 11:10:45.036603"", ""timezone_type"": 3, ""timezone"": ""Asia/Taipei""}, ""縣市代碼"": ""63000"", ""專用標識編號"": ""臺北市旅館103號"", ""旅館名稱"": ""乃晶旅社"", ""電話或手機號碼"": ""(02)23043795"", ""營業地址"": ""108臺北市萬華區西園路一段168號12樓"", ""客房最低定價"": ""2000"", ""客房最高定價"": ""2000"", ""房間數"": ""10""}"
九昱晴美,104臺北市中山區林森北路568號2至13樓，3樓之1、2、3、5、6至12樓之1、2、3、5、6，13樓之1,,,臺北市旅館668號,,一般旅館,"{""_id"": 453, ""_importdate"": {""date"": ""2025-12-29 11:10:45.509799"", ""timezone_type"": 3, ""timezone"": ""Asia/Taipei""}, ""縣市代碼"": ""63000"", ""專用標識編號"": ""臺北市旅館668號"", ""旅館名稱"": ""九昱晴美 "", ""電話或手機號碼"": ""(02)66080807"", ""營業地址"": ""104臺北市中山區林森北路568號2至13樓，3樓之1、2、3、5、6至12樓之1、2、3、5、6，13樓之1"", ""客房最低定價"": ""10800"", ""客房最高定價"": ""21800"", ""房間數"": ""62""}"
二十輪旅店,108臺北市萬華區武昌街二段72號5樓、6樓、10樓,25.0447310,121.5061750,臺北市旅館381號,,一般旅館,"{""_id"": 239, ""_importdate"": {""date"": ""2025-12-29 11:10:45.261884"", ""timezone_type"": 3, ""timezone"": ""Asia/Taipei""}, ""縣市代碼"": ""63000"", ""專用標識編號"": ""臺北市旅館381號"", ""旅館名稱"": ""二十輪旅店"", ""電話或手機號碼"": ""(02)23810500"", ""營業地址"": ""108臺北市萬華區武昌街二段72號5樓、6樓、10樓"", ""客房最低定價"": ""4900"", ""客房最高定價"": ""5400"", ""房間數"": ""48""}"
二十輪旅店大安店,106臺北市大安區大安路一段183號，185號，185號2樓至7樓,,,臺北市旅館520號,,一般旅館,"{""_id"": 341, ""_importdate"": {""date"": ""2025-12-29 11:10:45.388616"", ""timezone_type"": 3, ""timezone"": ""Asia/Taipei""}, ""縣市代碼"": ""63000"", ""專用標識編號"": ""臺北市旅館520號"", ""旅館名稱"": ""二十輪旅店大安店"", ""電話或手機號碼"": ""(02)27032220"", ""營業地址"": ""106臺北市大安區大安路一段183號，185號，185號2樓至7樓"", ""客房最低定價"": ""4500"", ""客房最高定價"": ""26000"", ""房間數"": ""30""}"
互舍商旅台北館,103臺北市大同區重慶北路二段172號1至14樓、5樓之1至14樓之1及174號、保安街13、11號4樓,,,臺北市旅館491號,,一般旅館,"{""_id"": 322, ""_importdate"": {""date"": ""2025-12-29 11:10:45.366537"", ""timezone_type"": 3, ""timezone"": ""Asia/Taipei""}, ""縣市代碼"": ""63000"", ""專用標識編號"": ""臺北市旅館491號"", ""旅館名稱"": ""互舍商旅台北館"", ""電話或手機號碼"": ""(02)25533919"", ""營業地址"": ""103臺北市大同區重慶北路二段172號1至14樓、5樓之1至14樓之1及174號、保安街13、11號4樓"", ""客房最低定價"": ""3600"", ""客房最高定價"": ""36000"", ""房間數"": ""148""}"
五月家青旅 北車館,100臺北市中正區忠孝西路一段122號6樓,25.0473610,121.5110000,臺北市旅館663號,,一般旅館,"{""_id"": 448, ""_importdate"": {""date"": ""2025-12-29 11:10:45.504414"", ""timezone_type"": 3, ""timezone"": ""Asia/Taipei""}, ""縣市代碼"": ""63000"", ""專用標識編號"": ""臺北市旅館663號"", ""旅館名稱"": ""五月家青旅 北車館"", ""電話或手機號碼"": ""(02)23822929"", ""營業地址"": ""100臺北市中正區忠孝西路一段122號6樓"", ""客房最低定價"": ""600"", ""客房最高定價"": ""4000"", ""房間數"": ""5""}"
五月家青旅台大館,116臺北市文山區羅斯福路四段208號1-2樓,25.0105000,121.5370430,臺北市旅館140號,,一般旅館,"{""_id"": 85, ""_importdate"": {""date"": ""2025-12-29 11:10:45.073265"", ""timezone_type"": 3, ""timezone"": ""Asia/Taipei""}, ""縣市代碼"": ""63000"", ""專用標識編號"": ""臺北市旅館140號"", ""旅館名稱"": ""五月家青旅台大館"", ""電話或手機號碼"": ""(02)23652284"", ""營業地址"": ""116臺北市文山區羅斯福路四段208號1-2樓"", ""客房最低定價"": ""1000"", ""客房最高定價"": ""3600"", ""房間數"": ""13""}"
亞太飯店 北投館,112臺北市北投區幽雅路31號,25.1371460,121.5147950,臺北市旅館622號,,一般旅館,"{""_id"": 413, ""_importdate"": {""date"": ""2025-12-29 11:10:45.467837"", ""timezone_type"": 3, ""timezone"": ""Asia/Taipei""}, ""縣市代碼"": ""63000"", ""專用標識編號"": ""臺北市旅館622號"", ""旅館名稱"": ""亞太飯店 北投館"", ""電話或手機號碼"": ""(02)28983088"", ""營業地址"": ""112臺北市北投區幽雅路31號"", ""客房最低定價"": ""10000"", ""客房最高定價"": ""38390"", ""房間數"": ""140""}"
享住旅店 Just Live Inn,"100臺北市中正區漢口街一段4,6號2-4樓",25.0448180,121.5121480,臺北市旅館123號,,一般旅館,"{""_id"": 75, ""_importdate"": {""date"": ""2025-12-29 11:10:45.059389"", ""timezone_type"": 3, ""timezone"": ""Asia/Taipei""}, ""縣市代碼"": ""63000"", ""專用標識編號"": ""臺北市旅館123號"", ""旅館名稱"": ""享住旅店 Just Live Inn"", ""電話或手機號碼"": ""(02)23713151"", ""營業地址"": ""100臺北市中正區漢口街一段4,6號2-4樓"", ""客房最低定價"": ""3450"", ""客房最高定價"": ""4650"", ""房間數"": ""18""}"
享住青旅,100臺北市中正區館前路8號地下1層,25.0458170,121.5148920,臺北市旅館798號,,一般旅館,"{""_id"": 566, ""_importdate"": {""date"": ""2025-12-29 11:10:45.641320"", ""timezone_type"": 3, ""timezone"": ""Asia/Taipei""}, ""縣市代碼"": ""63000"", ""專用標識編號"": ""臺北市旅館798號"", ""旅館名稱"": ""享住青旅"", ""電話或手機號碼"": ""0970-939898"", ""營業地址"": ""100臺北市中正區館前路8號地下1層"", ""客房最低定價"": ""600"", ""客房最高定價"": ""3600"", ""房間數"": ""7""}"
京都商務旅館,104臺北市中山區長春路38號3-10樓,25.0549250,121.5263640,臺北市旅館063號,,一般旅館,"{""_id"": 35, ""_importdate"": {""date"": ""2025-12-29 11:10:45.005997"", ""timezone_type"": 3, ""timezone"": ""Asia/Taipei""}, ""縣市代碼"": ""63000"", ""專用標識編號"": ""臺北市旅館063號"", ""旅館名稱"": ""京都商務旅館"", ""電話或手機號碼"": ""(02)25673366"", ""營業地址"": ""104臺北市中山區長春路38號3-10樓  "", ""客房最低定價"": ""3000"", ""客房最高定價"": ""11000"", ""房間數"": ""40""}"
仙渡莊旅社,112臺北市北投區大度路三段304號,25.1236230,121.4657990,臺北市旅館209號,,一般旅館,"{""_id"": 122, ""_importdate"": {""date"": ""2025-12-29 11:10:45.114558"", ""timezone_type"": 3, ""timezone"": ""Asia/Taipei""}, ""縣市代碼"": ""63000"", ""專用標識編號"": ""臺北市旅館209號"", ""旅館名稱"": ""仙渡莊旅社"", ""電話或手機號碼"": ""(02)28913537"", ""營業地址"": ""112臺北市北投區大度路三段304號"", ""客房最低定價"": ""2000"", ""客房最高定價"": ""3000"", ""房間數"": ""14""}"
仲信大湖商旅,114臺北市內湖區成功路四段351、353號1至4樓,25.0841640,121.5953680,臺北市旅館587號,,一般旅館,"{""_id"": 390, ""_importdate"": {""date"": ""2025-12-29 11:10:45.443244"", ""timezone_type"": 3, ""timezone"": ""Asia/Taipei""}, ""縣市代碼"": ""63000"", ""專用標識編號"": ""臺北市旅館587號"", ""旅館名稱"": ""仲信大湖商旅"", ""電話或手機號碼"": ""(02)27932122"", ""營業地址"": ""114臺北市內湖區成功路四段351、353號1至4樓"", ""客房最低定價"": ""6000"", ""客房最高定價"": ""6000"", ""房間數"": ""27""}"
伊倫商務旅館,104臺北市中山區松江路123巷10號1-4樓,25.0529110,121.5342060,臺北市旅館304號,,一般旅館,"{""_id"": 187, ""_importdate"": {""date"": ""2025-12-29 11:10:45.195298"", ""timezone_type"": 3, ""timezone"": ""Asia/Taipei""}, ""縣市代碼"": ""63000"", ""專用標識編號"": ""臺北市旅館304號"", ""旅館名稱"": ""伊倫商務旅館"", ""電話或手機號碼"": ""(02)25076666"", ""營業地址"": ""104臺北市中山區松江路123巷10號1-4樓"", ""客房最低定價"": ""6000"", ""客房最高定價"": ""8000"", ""房間數"": ""31""}"
侘侘行旅,100臺北市中正區公園路13號8樓、9樓,25.0454900,121.5174000,臺北市旅館607號,,一般旅館,"{""_id"": 403, ""_importdate"": {""date"": ""2025-12-29 11:10:45.457047"", ""timezone_type"": 3, ""timezone"": ""Asia/Taipei""}, ""縣市代碼"": ""63000"", ""專用標識編號"": ""臺北市旅館607號"", ""旅館名稱"": ""侘侘行旅"", ""電話或手機號碼"": ""(02)89782345"", ""營業地址"": ""100臺北市中正區公園路13號8樓、9樓"", ""客房最低定價"": ""15000"", ""客房最高定價"": ""15000"", ""房間數"": ""49""}"
俞美飯店,108臺北市萬華區武昌街二段106號2-8樓,25.0450650,121.5050980,臺北市旅館408號,,一般旅館,"{""_id"": 254, ""_importdate"": {""date"": ""2025-12-29 11:10:45.280959"", ""timezone_type"": 3, ""timezone"": ""Asia/Taipei""}, ""縣市代碼"": ""63000"", ""專用標識編號"": ""臺北市旅館408號"", ""旅館名稱"": ""俞美飯店"", ""電話或手機號碼"": ""(02)23883008"", ""營業地址"": ""108臺北市萬華區武昌街二段106號2-8樓"", ""客房最低定價"": ""1500"", ""客房最高定價"": ""12000"", ""房間數"": ""42""}"
信星旅館,103臺北市大同區華陰街48號至48之11號4樓、50號至50之11號5樓,,,臺北市旅館467號,,一般旅館,"{""_id"": 304, ""_importdate"": {""date"": ""2025-12-29 11:10:45.342608"", ""timezone_type"": 3, ""timezone"": ""Asia/Taipei""}, ""縣市代碼"": ""63000"", ""專用標識編號"": ""臺北市旅館467號"", ""旅館名稱"": ""信星旅館"", ""電話或手機號碼"": ""(02)25562015"", ""營業地址"": ""103臺北市大同區華陰街48號至48之11號4樓、50號至50之11號5樓"", ""客房最低定價"": ""3200"", ""客房最高定價"": ""4200"", ""房間數"": ""57""}"
優美飯店,104臺北市中山區民生東路一段28號1-8樓,25.0579240,121.5240450,臺北市旅館774號,,一般旅館,"{""_id"": 542, ""_importdate"": {""date"": ""2025-12-29 11:10:45.605021"", ""timezone_type"": 3, ""timezone"": ""Asia/Taipei""}, ""縣市代碼"": ""63000"", ""專用標識編號"": ""臺北市旅館774號"", ""旅館名稱"": ""優美飯店"", ""電話或手機號碼"": ""(02)25255678"", ""營業地址"": ""104臺北市中山區民生東路一段28號1-8樓"", ""客房最低定價"": ""5250"", ""客房最高定價"": ""7650"", ""房間數"": ""63""}"
儷夏商旅,108臺北市萬華區中華路一段90號4樓、5樓、6樓、8樓,,,臺北市旅館417號,,一般旅館,"{""_id"": 262, ""_importdate"": {""date"": ""2025-12-29 11:10:45.289049"", ""timezone_type"": 3, ""timezone"": ""Asia/Taipei""}, ""縣市代碼"": ""63000"", ""專用標識編號"": ""臺北市旅館417號"", ""旅館名稱"": ""儷夏商旅"", ""電話或手機號碼"": ""(02)23116168"", ""營業地址"": ""108臺北市萬華區中華路一段90號4樓、5樓、6樓、8樓"", ""客房最低定價"": ""15000"", ""客房最高定價"": ""20000"", ""房間數"": ""85""}"
儷夏旅館-西寧館,108臺北市萬華區西寧南路30號3樓、9樓,25.0458900,121.5067290,臺北市旅館458號,,一般旅館,"{""_id"": 296, ""_importdate"": {""date"": ""2025-12-29 11:10:45.331926"", ""timezone_type"": 3, ""timezone"": ""Asia/Taipei""}, ""縣市代碼"": ""63000"", ""專用標識編號"": ""臺北市旅館458號"", ""旅館名稱"": ""儷夏旅館-西寧館"", ""電話或手機號碼"": ""(02)23616999"", ""營業地址"": ""108臺北市萬華區西寧南路30號3樓、9樓"", ""客房最低定價"": ""3000"", ""客房最高定價"": ""21000"", ""房間數"": ""31""}"
儷客旅店-站前店,100臺北市中正區忠孝西路一段72號5樓及5樓之1,,,臺北市旅館631號,,一般旅館,"{""_id"": 422, ""_importdate"": {""date"": ""2025-12-29 11:10:45.477085"", ""timezone_type"": 3, ""timezone"": ""Asia/Taipei""}, ""縣市代碼"": ""63000"", ""專用標識編號"": ""臺北市旅館631號"", ""旅館名稱"": ""儷客旅店-站前店"", ""電話或手機號碼"": ""(02)23118081"", ""營業地址"": ""100臺北市中正區忠孝西路一段72號5樓及5樓之1"", ""客房最低定價"": ""3000"", ""客房最高定價"": ""21000"", ""房間數"": ""30""}"
儷萊旅館,"100臺北市中正區中華路一段21號4-5樓,8-11樓",25.0447500,121.5312820,臺北市旅館211號,,一般旅館,"{""_id"": 124, ""_importdate"": {""date"": ""2025-12-29 11:10:45.117153"", ""timezone_type"": 3, ""timezone"": ""Asia/Taipei""}, ""縣市代碼"": ""63000"", ""專用標識編號"": ""臺北市旅館211號"", ""旅館名稱"": ""儷萊旅館"", ""電話或手機號碼"": ""(02)23111440"", ""營業地址"": ""100臺北市中正區中華路一段21號4-5樓,8-11樓"", ""客房最低定價"": ""3960"", ""客房最高定價"": ""12000"", ""房間數"": ""78""}"
儷萊飯店(普亨萊大飯店),100臺北市中正區中華路一段21號12樓,25.0447500,121.5312820,臺北市旅館207號,,一般旅館,"{""_id"": 120, ""_importdate"": {""date"": ""2025-12-29 11:10:45.111918"", ""timezone_type"": 3, ""timezone"": ""Asia/Taipei""}, ""縣市代碼"": ""63000"", ""專用標識編號"": ""臺北市旅館207號"", ""旅館名稱"": ""儷萊飯店(普亨萊大飯店)"", ""電話或手機號碼"": ""(02)23111440"", ""營業地址"": ""100臺北市中正區中華路一段21號12樓"", ""客房最低定價"": ""5000"", ""客房最高定價"": ""12000"", ""房間數"": ""13""}"
內江賓?,108臺北市萬華區西寧南路112號2-6樓,25.0415570,121.5058790,臺北市旅館114號,,一般旅館,"{""_id"": 67, ""_importdate"": {""date"": ""2025-12-29 11:10:45.048305"", ""timezone_type"": 3, ""timezone"": ""Asia/Taipei""}, ""縣市代碼"": ""63000"", ""專用標識編號"": ""臺北市旅館114號"", ""旅館名稱"": ""內江賓?"", ""電話或手機號碼"": ""(02)23812147"", ""營業地址"": ""108臺北市萬華區西寧南路112號2-6樓"", ""客房最低定價"": ""6800"", ""客房最高定價"": ""9500"", ""房間數"": ""17""}"
全界精品旅館,108臺北市萬華區漢口街二段54號10樓,25.0456300,121.5058600,臺北市旅館771號,,一般旅館,"{""_id"": 539, ""_importdate"": {""date"": ""2025-12-29 11:10:45.601869"", ""timezone_type"": 3, ""timezone"": ""Asia/Taipei""}, ""縣市代碼"": ""63000"", ""專用標識編號"": ""臺北市旅館771號"", ""旅館名稱"": ""全界精品旅館"", ""電話或手機號碼"": ""(02)23611871"", ""營業地址"": ""108臺北市萬華區漢口街二段54號10樓"", ""客房最低定價"": ""20000"", ""客房最高定價"": ""40000"", ""房間數"": ""59""}"
六福居,104臺北市中山區南京東路一段38號,25.0519780,121.5241580,臺北市旅館399號,,一般旅館,"{""_id"": 250, ""_importdate"": {""date"": ""2025-12-29 11:10:45.276446"", ""timezone_type"": 3, ""timezone"": ""Asia/Taipei""}, ""縣市代碼"": ""63000"", ""專用標識編號"": ""臺北市旅館399號"", ""旅館名稱"": ""六福居"", ""電話或手機號碼"": ""(02)77010165"", ""營業地址"": ""104臺北市中山區南京東路一段38號"", ""客房最低定價"": ""12000"", ""客房最高定價"": ""17000"", ""房間數"": ""49""}"
凡登商旅●二館,106臺北市大安區忠孝東路4段197號14樓之2、6、8,25.0532270,121.6125800,臺北市旅館483號,,一般旅館,"{""_id"": 316, ""_importdate"": {""date"": ""2025-12-29 11:10:45.358413"", ""timezone_type"": 3, ""timezone"": ""Asia/Taipei""}, ""縣市代碼"": ""63000"", ""專用標識編號"": ""臺北市旅館483號"", ""旅館名稱"": ""凡登商旅●二館"", ""電話或手機號碼"": ""(02)87710852"", ""營業地址"": ""106臺北市大安區忠孝東路4段197號14樓之2、6、8"", ""客房最低定價"": ""20000"", ""客房最高定價"": ""20000"", ""房間數"": ""32""}"
凱微精品旅館,104臺北市中山區林森北路381號9-10樓,25.0561620,121.5254740,臺北市旅館138號,,一般旅館,"{""_id"": 84, ""_importdate"": {""date"": ""2025-12-29 11:10:45.071843"", ""timezone_type"": 3, ""timezone"": ""Asia/Taipei""}, ""縣市代碼"": ""63000"", ""專用標識編號"": ""臺北市旅館138號"", ""旅館名稱"": ""凱微精品旅館"", ""電話或手機號碼"": ""(02)25426879"", ""營業地址"": ""104臺北市中山區林森北路381號9-10樓"", ""客房最低定價"": ""3980"", ""客房最高定價"": ""5000"", ""房間數"": ""28""}"
凱旋酒店,114臺北市內湖區江南街55號3樓、9樓,25.0775720,121.5779390,臺北市旅館675號,,一般旅館,"{""_id"": 458, ""_importdate"": {""date"": ""2025-12-29 11:10:45.515433"", ""timezone_type"": 3, ""timezone"": ""Asia/Taipei""}, ""縣市代碼"": ""63000"", ""專用標識編號"": ""臺北市旅館675號"", ""旅館名稱"": ""凱旋酒店"", ""電話或手機號碼"": ""(02)87527888"", ""營業地址"": ""114臺北市內湖區江南街55號3樓、9樓"", ""客房最低定價"": ""8800"", ""客房最高定價"": ""38800"", ""房間數"": ""88""}"
凱統大飯店,106臺北市大安區忠孝東路三段8號3-9樓,25.0422950,121.5420460,臺北市旅館057號,,一般旅館,"{""_id"": 31, ""_importdate"": {""date"": ""2025-12-29 11:10:44.998946"", ""timezone_type"": 3, ""timezone"": ""Asia/Taipei""}, ""縣市代碼"": ""63000"", ""專用標識編號"": ""臺北市旅館057號"", ""旅館名稱"": ""凱統大飯店"", ""電話或手機號碼"": ""(02)27211162"", ""營業地址"": ""106臺北市大安區忠孝東路三段8號3-9樓"", ""客房最低定價"": ""2580"", ""客房最高定價"": ""3280"", ""房間數"": ""56""}"
凱達大飯店,108臺北市萬華區艋舺大道167號,25.0333060,121.4998430,臺北市旅館624號,,一般旅館,"{""_id"": 415, ""_importdate"": {""date"": ""2025-12-29 11:10:45.469936"", ""timezone_type"": 3, ""timezone"": ""Asia/Taipei""}, ""縣市代碼"": ""63000"", ""專用標識編號"": ""臺北市旅館624號"", ""旅館名稱"": ""凱達大飯店"", ""電話或手機號碼"": ""(02)23066777"", ""營業地址"": ""108臺北市萬華區艋舺大道167號"", ""客房最低定價"": ""9800"", ""客房最高定價"": ""68800"", ""房間數"": ""745""}"
函舍旅館,108臺北市萬華區成都路68號4-5樓,25.0428610,121.5051660,臺北市旅館264號,,一般旅館,"{""_id"": 160, ""_importdate"": {""date"": ""2025-12-29 11:10:45.165608"", ""timezone_type"": 3, ""timezone"": ""Asia/Taipei""}, ""縣市代碼"": ""63000"", ""專用標識編號"": ""臺北市旅館264號"", ""旅館名稱"": ""函舍旅館"", ""電話或手機號碼"": ""(02)23718812"", ""營業地址"": ""108臺北市萬華區成都路68號4-5樓"", ""客房最低定價"": ""9880"", ""客房最高定價"": ""15880"", ""房間數"": ""19""}"
力歐時尚旅館,100臺北市中正區延平南路9號1-9樓,25.0463030,121.5108930,臺北市旅館032號,,一般旅館,"{""_id"": 18, ""_importdate"": {""date"": ""2025-12-29 11:10:44.985560"", ""timezone_type"": 3, ""timezone"": ""Asia/Taipei""}, ""縣市代碼"": ""63000"", ""專用標識編號"": ""臺北市旅館032號"", ""旅館名稱"": ""力歐時尚旅館"", ""電話或手機號碼"": ""(02)23145296"", ""營業地址"": ""100臺北市中正區延平南路9號1-9樓"", ""客房最低定價"": ""3000"", ""客房最高定價"": ""5000"", ""房間數"": ""37""}"
力歐時尚旅館西門館,"108臺北市萬華區康定路25巷36弄4,6號2-4樓",25.0438180,121.5041310,臺北市旅館231號,,一般旅館,"{""_id"": 137, ""_importdate"": {""date"": ""2025-12-29 11:10:45.134517"", ""timezone_type"": 3, ""timezone"": ""Asia/Taipei""}, ""縣市代碼"": ""63000"", ""專用標識編號"": ""臺北市旅館231號"", ""旅館名稱"": ""力歐時尚旅館西門館"", ""電話或手機號碼"": ""(02)23889855"", ""營業地址"": ""108臺北市萬華區康定路25巷36弄4,6號2-4樓"", ""客房最低定價"": ""800"", ""客房最高定價"": ""3000"", ""房間數"": ""17""}"
北城大飯店,104臺北市中山區長春路279號B1-12樓,25.0547570,121.5413660,臺北市旅館248號,,一般旅館,"{""_id"": 146, ""_importdate"": {""date"": ""2025-12-29 11:10:45.147049"", ""timezone_type"": 3, ""timezone"": ""Asia/Taipei""}, ""縣市代碼"": ""63000"", ""專用標識編號"": ""臺北市旅館248號"", ""旅館名稱"": ""北城大飯店"", ""電話或手機號碼"": ""(02)25017601"", ""營業地址"": ""104臺北市中山區長春路279號B1-12樓"", ""客房最低定價"": ""3200"", ""客房最高定價"": ""3600"", ""房間數"": ""55""}"
北投天玥泉溫泉會館,112臺北市北投區中山路3號3樓,25.1371150,121.5058090,臺北市旅館415號,,一般旅館,"{""_id"": 260, ""_importdate"": {""date"": ""2025-12-29 11:10:45.287205"", ""timezone_type"": 3, ""timezone"": ""Asia/Taipei""}, ""縣市代碼"": ""63000"", ""專用標識編號"": ""臺北市旅館415號"", ""旅館名稱"": ""北投天玥泉溫泉會館"", ""電話或手機號碼"": ""(02)28988661"", ""營業地址"": ""112臺北市北投區中山路3號3樓"", ""客房最低定價"": ""12800"", ""客房最高定價"": ""12800"", ""房間數"": ""21""}"
北投晶泉丰旅,112臺北市北投區泉源路19號、19之1號（地上1層至地上14層）,,,臺北市旅館799號,,一般旅館,"{""_id"": 567, ""_importdate"": {""date"": ""2025-12-29 11:10:45.642183"", ""timezone_type"": 3, ""timezone"": ""Asia/Taipei""}, ""縣市代碼"": ""63000"", ""專用標識編號"": ""臺北市旅館799號"", ""旅館名稱"": ""北投晶泉丰旅"", ""電話或手機號碼"": ""(02)66108000"", ""營業地址"": ""112臺北市北投區泉源路19號、19之1號（地上1層至地上14層）"", ""客房最低定價"": ""22000"", ""客房最高定價"": ""66000"", ""房間數"": ""100""}"
北投會館-北捷行旅,112臺北市北投區大業路527巷88號(2至3樓),25.1349300,121.4839570,臺北市旅館755號,,一般旅館,"{""_id"": 523, ""_importdate"": {""date"": ""2025-12-29 11:10:45.584073"", ""timezone_type"": 3, ""timezone"": ""Asia/Taipei""}, ""縣市代碼"": ""63000"", ""專用標識編號"": ""臺北市旅館755號"", ""旅館名稱"": ""北投會館-北捷行旅"", ""電話或手機號碼"": ""(02)28930105"", ""營業地址"": ""112臺北市北投區大業路527巷88號(2至3樓)"", ""客房最低定價"": ""5500"", ""客房最高定價"": ""12000"", ""房間數"": ""42""}"
北門文旅,103臺北市大同區長安西路145巷3號,25.0517180,121.5149690,臺北市旅館065號,,一般旅館,"{""_id"": 37, ""_importdate"": {""date"": ""2025-12-29 11:10:45.008862"", ""timezone_type"": 3, ""timezone"": ""Asia/Taipei""}, ""縣市代碼"": ""63000"", ""專用標識編號"": ""臺北市旅館065號"", ""旅館名稱"": ""北門文旅"", ""電話或手機號碼"": ""(02)25567797"", ""營業地址"": ""103臺北市大同區長安西路145巷3號"", ""客房最低定價"": ""1400"", ""客房最高定價"": ""8000"", ""房間數"": ""15""}"
北門臥客青年旅舍,103臺北市大同區甘谷街26號2樓之1,25.0527700,121.5108930,臺北市旅館500號,,一般旅館,"{""_id"": 328, ""_importdate"": {""date"": ""2025-12-29 11:10:45.374552"", ""timezone_type"": 3, ""timezone"": ""Asia/Taipei""}, ""縣市代碼"": ""63000"", ""專用標識編號"": ""臺北市旅館500號"", ""旅館名稱"": ""北門臥客青年旅舍"", ""電話或手機號碼"": ""(02)25557177"", ""營業地址"": ""103臺北市大同區甘谷街26號2樓之1"", ""客房最低定價"": ""4000"", ""客房最高定價"": ""8000"", ""房間數"": ""5""}"
千彩格精品旅店,104臺北市中山區林森北路286號2至3樓,25.0557580,121.5253590,臺北市旅館469號,,一般旅館,"{""_id"": 306, ""_importdate"": {""date"": ""2025-12-29 11:10:45.345396"", ""timezone_type"": 3, ""timezone"": ""Asia/Taipei""}, ""縣市代碼"": ""63000"", ""專用標識編號"": ""臺北市旅館469號"", ""旅館名稱"": ""千彩格精品旅店　"", ""電話或手機號碼"": ""(02)25637555"", ""營業地址"": ""104臺北市中山區林森北路286號2至3樓"", ""客房最低定價"": ""6880"", ""客房最高定價"": ""14000"", ""房間數"": ""19""}"
千慧旅館,103臺北市大同區南京西路22號7樓,25.0531390,121.5152020,臺北市旅館107號,,一般旅館,"{""_id"": 61, ""_importdate"": {""date"": ""2025-12-29 11:10:45.040533"", ""timezone_type"": 3, ""timezone"": ""Asia/Taipei""}, ""縣市代碼"": ""63000"", ""專用標識編號"": ""臺北市旅館107號"", ""旅館名稱"": ""千慧旅館"", ""電話或手機號碼"": ""(02)25552451"", ""營業地址"": ""103臺北市大同區南京西路22號7樓"", ""客房最低定價"": ""2200"", ""客房最高定價"": ""3200"", ""房間數"": ""20""}"
南港安樂旅社,115臺北市南港區南港路一段229號2-3樓,25.0549460,121.6107240,臺北市旅館056號,,一般旅館,"{""_id"": 30, ""_importdate"": {""date"": ""2025-12-29 11:10:44.997920"", ""timezone_type"": 3, ""timezone"": ""Asia/Taipei""}, ""縣市代碼"": ""63000"", ""專用標識編號"": ""臺北市旅館056號"", ""旅館名稱"": ""南港安樂旅社"", ""電話或手機號碼"": ""(02)26511797"", ""營業地址"": ""115臺北市南港區南港路一段229號2-3樓"", ""客房最低定價"": ""1400"", ""客房最高定價"": ""1400"", ""房間數"": ""10""}"
南港老爺行旅,115臺北市南港區經貿二路196號.196號10樓至20樓,25.0600050,121.6147030,臺北市旅館689號,,一般旅館,"{""_id"": 469, ""_importdate"": {""date"": ""2025-12-29 11:10:45.527143"", ""timezone_type"": 3, ""timezone"": ""Asia/Taipei""}, ""縣市代碼"": ""63000"", ""專用標識編號"": ""臺北市旅館689號"", ""旅館名稱"": ""南港老爺行旅"", ""電話或手機號碼"": ""(02)77500588"", ""營業地址"": ""115臺北市南港區經貿二路196號.196號10樓至20樓"", ""客房最低定價"": ""4500"", ""客房最高定價"": ""19800"", ""房間數"": ""179""}"
南陽街壹號旅店,100臺北市中正區南陽街1號3樓至4樓,25.0457160,121.5162300,臺北市旅館633號,,一般旅館,"{""_id"": 424, ""_importdate"": {""date"": ""2025-12-29 11:10:45.479247"", ""timezone_type"": 3, ""timezone"": ""Asia/Taipei""}, ""縣市代碼"": ""63000"", ""專用標識編號"": ""臺北市旅館633號"", ""旅館名稱"": ""南陽街壹號旅店"", ""電話或手機號碼"": ""(02)23888377"", ""營業地址"": ""100臺北市中正區南陽街1號3樓至4樓"", ""客房最低定價"": ""3000"", ""客房最高定價"": ""4800"", ""房間數"": ""79""}"
卡夫人背包客棧,100臺北市中正區館前路34號7樓,25.0446660,121.5149060,臺北市旅館577號,,一般旅館,"{""_id"": 381, ""_importdate"": {""date"": ""2025-12-29 11:10:45.433259"", ""timezone_type"": 3, ""timezone"": ""Asia/Taipei""}, ""縣市代碼"": ""63000"", ""專用標識編號"": ""臺北市旅館577號"", ""旅館名稱"": ""卡夫人背包客棧"", ""電話或手機號碼"": ""(02)23881666"", ""營業地址"": ""100臺北市中正區館前路34號7樓"", ""客房最低定價"": ""300"", ""客房最高定價"": ""6000"", ""房間數"": ""14""}"
卡樂町旅店,108臺北市萬華區內江街55巷22號,25.0425870,121.5052660,臺北市旅館466號,,一般旅館,"{""_id"": 303, ""_importdate"": {""date"": ""2025-12-29 11:10:45.341290"", ""timezone_type"": 3, ""timezone"": ""Asia/Taipei""}, ""縣市代碼"": ""63000"", ""專用標識編號"": ""臺北市旅館466號"", ""旅館名稱"": ""卡樂町旅店"", ""電話或手機號碼"": ""(02)23826000"", ""營業地址"": ""108臺北市萬華區內江街55巷22號"", ""客房最低定價"": ""2288"", ""客房最高定價"": ""2288"", ""房間數"": ""20""}"
印石時尚旅館,116臺北市文山區秀明路二段15號,24.9920820,121.5754150,臺北市旅館293號,,一般旅館,"{""_id"": 177, ""_importdate"": {""date"": ""2025-12-29 11:10:45.185489"", ""timezone_type"": 3, ""timezone"": ""Asia/Taipei""}, ""縣市代碼"": ""63000"", ""專用標識編號"": ""臺北市旅館293號"", ""旅館名稱"": ""印石時尚旅館"", ""電話或手機號碼"": ""(02)86617070"", ""營業地址"": ""116臺北市文山區秀明路二段15號"", ""客房最低定價"": ""4500"", ""客房最高定價"": ""12000"", ""房間數"": ""50""}"
友徠精品旅館,115臺北市南港區重陽路57巷15號,25.0566090,121.5962310,臺北市旅館312號,,一般旅館,"{""_id"": 194, ""_importdate"": {""date"": ""2025-12-29 11:10:45.203261"", ""timezone_type"": 3, ""timezone"": ""Asia/Taipei""}, ""縣市代碼"": ""63000"", ""專用標識編號"": ""臺北市旅館312號"", ""旅館名稱"": ""友徠精品旅館"", ""電話或手機號碼"": ""(02)26510101"", ""營業地址"": ""115臺北市南港區重陽路57巷15號"", ""客房最低定價"": ""2280"", ""客房最高定價"": ""8200"", ""房間數"": ""26""}"
友華賓館,"105臺北市松山區八德路四段656,656-1號6樓",25.0498510,121.5755490,臺北市旅館122號,,一般旅館,"{""_id"": 74, ""_importdate"": {""date"": ""2025-12-29 11:10:45.058110"", ""timezone_type"": 3, ""timezone"": ""Asia/Taipei""}, ""縣市代碼"": ""63000"", ""專用標識編號"": ""臺北市旅館122號"", ""旅館名稱"": ""友華賓館"", ""電話或手機號碼"": ""(02)27630505"", ""營業地址"": ""105臺北市松山區八德路四段656,656-1號6樓"", ""客房最低定價"": ""1400"", ""客房最高定價"": ""6600"", ""房間數"": ""30""}"
古奈堡精品旅館,108臺北市萬華區峨眉街28號5樓之1,25.0433630,121.5067430,臺北市旅館804號,,一般旅館,"{""_id"": 572, ""_importdate"": {""date"": ""2025-12-29 11:10:45.647212"", ""timezone_type"": 3, ""timezone"": ""Asia/Taipei""}, ""縣市代碼"": ""63000"", ""專用標識編號"": ""臺北市旅館804號"", ""旅館名稱"": ""古奈堡精品旅館"", ""電話或手機號碼"": ""(02)23816808"", ""營業地址"": ""108臺北市萬華區峨眉街28號5樓之1"", ""客房最低定價"": ""2000"", ""客房最高定價"": ""24000"", ""房間數"": ""8""}"
古山園旅社,108臺北市萬華區華西街40巷16號,25.0372510,121.4979790,臺北市旅館233號,,一般旅館,"{""_id"": 138, ""_importdate"": {""date"": ""2025-12-29 11:10:45.135746"", ""timezone_type"": 3, ""timezone"": ""Asia/Taipei""}, ""縣市代碼"": ""63000"", ""專用標識編號"": ""臺北市旅館233號"", ""旅館名稱"": ""古山園旅社"", ""電話或手機號碼"": ""(02)23067408"", ""營業地址"": ""108臺北市萬華區華西街40巷16號"", ""客房最低定價"": ""1000"", ""客房最高定價"": ""2600"", ""房間數"": ""20""}"
台北世聯商旅,104臺北市中山區松江路90巷5號1至7樓,25.0505930,121.5319460,臺北市旅館078號,,一般旅館,"{""_id"": 41, ""_importdate"": {""date"": ""2025-12-29 11:10:45.013932"", ""timezone_type"": 3, ""timezone"": ""Asia/Taipei""}, ""縣市代碼"": ""63000"", ""專用標識編號"": ""臺北市旅館078號"", ""旅館名稱"": ""台北世聯商旅"", ""電話或手機號碼"": ""(02)25626161"", ""營業地址"": ""104臺北市中山區松江路90巷5號1至7樓"", ""客房最低定價"": ""5060"", ""客房最高定價"": ""7480"", ""房間數"": ""44""}"
台北中山九昱希爾頓逸林酒店,"104臺北市中山區中山北路一段121巷1之1號,121巷1號1樓至14樓",,,臺北市旅館677號,,一般旅館,"{""_id"": 460, ""_importdate"": {""date"": ""2025-12-29 11:10:45.517515"", ""timezone_type"": 3, ""timezone"": ""Asia/Taipei""}, ""縣市代碼"": ""63000"", ""專用標識編號"": ""臺北市旅館677號"", ""旅館名稱"": ""台北中山九昱希爾頓逸林酒店"", ""電話或手機號碼"": ""(02)66199999"", ""營業地址"": ""104臺北市中山區中山北路一段121巷1之1號,121巷1號1樓至14樓"", ""客房最低定價"": ""18000"", ""客房最高定價"": ""120000"", ""房間數"": ""105""}"
台北中山意舍酒店,104臺北市中山區中山北路二段57之1號1至8樓,,,臺北市旅館493號,,一般旅館,"{""_id"": 324, ""_importdate"": {""date"": ""2025-12-29 11:10:45.369141"", ""timezone_type"": 3, ""timezone"": ""Asia/Taipei""}, ""縣市代碼"": ""63000"", ""專用標識編號"": ""臺北市旅館493號"", ""旅館名稱"": ""台北中山意舍酒店"", ""電話或手機號碼"": ""(02)25652828"", ""營業地址"": ""104臺北市中山區中山北路二段57之1號1至8樓"", ""客房最低定價"": ""5100"", ""客房最高定價"": ""15500"", ""房間數"": ""90""}"
台北五號商旅,100臺北市中正區延平南路160之5號(1樓至4樓),25.0379940,121.5083100,臺北市旅館646號,,一般旅館,"{""_id"": 434, ""_importdate"": {""date"": ""2025-12-29 11:10:45.489510"", ""timezone_type"": 3, ""timezone"": ""Asia/Taipei""}, ""縣市代碼"": ""63000"", ""專用標識編號"": ""臺北市旅館646號"", ""旅館名稱"": ""台北五號商旅"", ""電話或手機號碼"": ""(02)23883067"", ""營業地址"": ""100臺北市中正區延平南路160之5號(1樓至4樓)"", ""客房最低定價"": ""12000"", ""客房最高定價"": ""12000"", ""房間數"": ""6""}"
台北六福萬怡酒店,115臺北市南港區忠孝東路七段359號7-30樓,25.0525130,121.6060560,臺北市旅館523號,,一般旅館,"{""_id"": 343, ""_importdate"": {""date"": ""2025-12-29 11:10:45.390876"", ""timezone_type"": 3, ""timezone"": ""Asia/Taipei""}, ""縣市代碼"": ""63000"", ""專用標識編號"": ""臺北市旅館523號"", ""旅館名稱"": ""台北六福萬怡酒店"", ""電話或手機號碼"": ""(02)21716565"", ""營業地址"": ""115臺北市南港區忠孝東路七段359號7-30樓"", ""客房最低定價"": ""12000"", ""客房最高定價"": ""100000"", ""房間數"": ""465""}"
台北北投雅樂軒酒店,112臺北市北投區中央里大業路302號、300巷1號，2樓,,,臺北市旅館594號,,一般旅館,"{""_id"": 395, ""_importdate"": {""date"": ""2025-12-29 11:10:45.448352"", ""timezone_type"": 3, ""timezone"": ""Asia/Taipei""}, ""縣市代碼"": ""63000"", ""專用標識編號"": ""臺北市旅館594號"", ""旅館名稱"": ""台北北投雅樂軒酒店"", ""電話或手機號碼"": ""(02)77011788"", ""營業地址"": ""112臺北市北投區中央里大業路302號、300巷1號，2樓"", ""客房最低定價"": ""11000"", ""客房最高定價"": ""28000"", ""房間數"": ""292""}"
台北北門窩泊旅,103臺北市大同區太原路92巷2之1、2之2、2之3、2之4號(1樓至4樓),,,臺北市旅館570號,,一般旅館,"{""_id"": 376, ""_importdate"": {""date"": ""2025-12-29 11:10:45.427753"", ""timezone_type"": 3, ""timezone"": ""Asia/Taipei""}, ""縣市代碼"": ""63000"", ""專用標識編號"": ""臺北市旅館570號"", ""旅館名稱"": ""台北北門窩泊旅"", ""電話或手機號碼"": ""(02)25525068"", ""營業地址"": ""103臺北市大同區太原路92巷2之1、2之2、2之3、2之4號(1樓至4樓)"", ""客房最低定價"": ""540"", ""客房最高定價"": ""4500"", ""房間數"": ""19""}"
台北商旅慶城館,105臺北市松山區慶城街12號,25.0529910,121.5451050,臺北市旅館104號,,一般旅館,"{""_id"": 59, ""_importdate"": {""date"": ""2025-12-29 11:10:45.037897"", ""timezone_type"": 3, ""timezone"": ""Asia/Taipei""}, ""縣市代碼"": ""63000"", ""專用標識編號"": ""臺北市旅館104號"", ""旅館名稱"": ""台北商旅慶城館"", ""電話或手機號碼"": ""(02)87127589"", ""營業地址"": ""105臺北市松山區慶城街12號"", ""客房最低定價"": ""8000"", ""客房最高定價"": ""16500"", ""房間數"": ""84""}"
台北商旅（大安館）,106臺北市大安區大安路一段135號,25.0386810,121.5461630,臺北市旅館066號,,一般旅館,"{""_id"": 38, ""_importdate"": {""date"": ""2025-12-29 11:10:45.010304"", ""timezone_type"": 3, ""timezone"": ""Asia/Taipei""}, ""縣市代碼"": ""63000"", ""專用標識編號"": ""臺北市旅館066號"", ""旅館名稱"": ""台北商旅（大安館）"", ""電話或手機號碼"": ""(02)77119933"", ""營業地址"": ""106臺北市大安區大安路一段135號"", ""客房最低定價"": ""9200"", ""客房最高定價"": ""11500"", ""房間數"": ""42""}"
台北國泰萬怡酒店,104臺北市中山區民生東路三段6號地下1樓、1、2、14至20樓,,,臺北市旅館674號,,一般旅館,"{""_id"": 457, ""_importdate"": {""date"": ""2025-12-29 11:10:45.514234"", ""timezone_type"": 3, ""timezone"": ""Asia/Taipei""}, ""縣市代碼"": ""63000"", ""專用標識編號"": ""臺北市旅館674號"", ""旅館名稱"": ""台北國泰萬怡酒店 "", ""電話或手機號碼"": ""(02)77503377"", ""營業地址"": ""104臺北市中山區民生東路三段6號地下1樓、1、2、14至20樓"", ""客房最低定價"": ""15000"", ""客房最高定價"": ""100000"", ""房間數"": ""227""}"
台北國際飯店,104臺北市中山區南京東路一段66號3樓至10樓,25.0519320,121.5250770,臺北市旅館158號,,一般旅館,"{""_id"": 97, ""_importdate"": {""date"": ""2025-12-29 11:10:45.086112"", ""timezone_type"": 3, ""timezone"": ""Asia/Taipei""}, ""縣市代碼"": ""63000"", ""專用標識編號"": ""臺北市旅館158號"", ""旅館名稱"": ""台北國際飯店"", ""電話或手機號碼"": ""(02)66085999"", ""營業地址"": ""104臺北市中山區南京東路一段66號3樓至10樓"", ""客房最低定價"": ""6600"", ""客房最高定價"": ""11800"", ""房間數"": ""85""}"
台北士林萬麗酒店,111臺北市士林區中山北路五段470巷8號,25.0919530,121.5297390,臺北市旅館656號,,一般旅館,"{""_id"": 443, ""_importdate"": {""date"": ""2025-12-29 11:10:45.498728"", ""timezone_type"": 3, ""timezone"": ""Asia/Taipei""}, ""縣市代碼"": ""63000"", ""專用標識編號"": ""臺北市旅館656號"", ""旅館名稱"": ""台北士林萬麗酒店"", ""電話或手機號碼"": ""(02)88612389"", ""營業地址"": ""111臺北市士林區中山北路五段470巷8號"", ""客房最低定價"": ""6000"", ""客房最高定價"": ""180000"", ""房間數"": ""104""}"
台北大安伊普索酒店,106臺北市大安區復興南路一段219之2號1樓、4-12樓,,,臺北市旅館793號,,一般旅館,"{""_id"": 561, ""_importdate"": {""date"": ""2025-12-29 11:10:45.636396"", ""timezone_type"": 3, ""timezone"": ""Asia/Taipei""}, ""縣市代碼"": ""63000"", ""專用標識編號"": ""臺北市旅館793號"", ""旅館名稱"": ""台北大安伊普索酒店"", ""電話或手機號碼"": ""(02)27117268"", ""營業地址"": ""106臺北市大安區復興南路一段219之2號1樓、4-12樓"", ""客房最低定價"": ""13000"", ""客房最高定價"": ""35000"", ""房間數"": ""136""}"
台北大直英迪格酒店,104臺北市中山區植福路200號（地上1樓部分）、200號5樓（地上5層至10層）,,,臺北市旅館708號,,一般旅館,"{""_id"": 484, ""_importdate"": {""date"": ""2025-12-29 11:10:45.542761"", ""timezone_type"": 3, ""timezone"": ""Asia/Taipei""}, ""縣市代碼"": ""63000"", ""專用標識編號"": ""臺北市旅館708號"", ""旅館名稱"": ""台北大直英迪格酒店"", ""電話或手機號碼"": ""(02)35187777"", ""營業地址"": ""104臺北市中山區植福路200號（地上1樓部分）、200號5樓（地上5層至10層）"", ""客房最低定價"": ""5000"", ""客房最高定價"": ""309600"", ""房間數"": ""149""}"
台北天晴旅店,100臺北市中正區懷寧街92-2號1至6樓,25.0426750,121.5139770,臺北市旅館542號,,一般旅館,"{""_id"": 355, ""_importdate"": {""date"": ""2025-12-29 11:10:45.404498"", ""timezone_type"": 3, ""timezone"": ""Asia/Taipei""}, ""縣市代碼"": ""63000"", ""專用標識編號"": ""臺北市旅館542號"", ""旅館名稱"": ""台北天晴旅店"", ""電話或手機號碼"": ""(02)23319391"", ""營業地址"": ""100臺北市中正區懷寧街92-2號1至6樓"", ""客房最低定價"": ""5000"", ""客房最高定價"": ""20000"", ""房間數"": ""15""}"
台北宿之酒店．臻品之選,108臺北市萬華區環河南路一段51號2至14樓,25.0455390,121.5025670,臺北市旅館651號,,一般旅館,"{""_id"": 439, ""_importdate"": {""date"": ""2025-12-29 11:10:45.494640"", ""timezone_type"": 3, ""timezone"": ""Asia/Taipei""}, ""縣市代碼"": ""63000"", ""專用標識編號"": ""臺北市旅館651號"", ""旅館名稱"": ""台北宿之酒店．臻品之選"", ""電話或手機號碼"": ""(02)23755511"", ""營業地址"": ""108臺北市萬華區環河南路一段51號2至14樓"", ""客房最低定價"": ""30000"", ""客房最高定價"": ""80000"", ""房間數"": ""87""}"
台北慕軒飯店，臻品之選,106臺北市大安區敦化南路一段331號1-13樓,25.0340610,121.5492270,臺北市旅館452號,,一般旅館,"{""_id"": 292, ""_importdate"": {""date"": ""2025-12-29 11:10:45.326417"", ""timezone_type"": 3, ""timezone"": ""Asia/Taipei""}, ""縣市代碼"": ""63000"", ""專用標識編號"": ""臺北市旅館452號"", ""旅館名稱"": ""台北慕軒飯店，臻品之選"", ""電話或手機號碼"": ""(02)77266699"", ""營業地址"": ""106臺北市大安區敦化南路一段331號1-13樓"", ""客房最低定價"": ""19000"", ""客房最高定價"": ""130000"", ""房間數"": ""124""}"
台北文華東方酒店,105臺北市松山區敦化北路158號B3-14樓,25.0553440,121.5483940,臺北市旅館461號,,一般旅館,"{""_id"": 299, ""_importdate"": {""date"": ""2025-12-29 11:10:45.335940"", ""timezone_type"": 3, ""timezone"": ""Asia/Taipei""}, ""縣市代碼"": ""63000"", ""專用標識編號"": ""臺北市旅館461號"", ""旅館名稱"": ""台北文華東方酒店"", ""電話或手機號碼"": ""(02)27156888"", ""營業地址"": ""105臺北市松山區敦化北路158號B3-14樓"", ""客房最低定價"": ""39850"", ""客房最高定價"": ""693000"", ""房間數"": ""303""}"
台北星辰旅館,100臺北市中正區金山南路一段80號1至7樓,25.0364390,121.5276080,臺北市旅館194號,,一般旅館,"{""_id"": 115, ""_importdate"": {""date"": ""2025-12-29 11:10:45.105354"", ""timezone_type"": 3, ""timezone"": ""Asia/Taipei""}, ""縣市代碼"": ""63000"", ""專用標識編號"": ""臺北市旅館194號"", ""旅館名稱"": ""台北星辰旅館"", ""電話或手機號碼"": ""(02)23971377"", ""營業地址"": ""100臺北市中正區金山南路一段80號1至7樓"", ""客房最低定價"": ""2580"", ""客房最高定價"": ""15000"", ""房間數"": ""52""}"
台北時代寓所,100臺北市中正區林森南路7號1至14樓、7-1號1樓,,,臺北市旅館728號,,一般旅館,"{""_id"": 499, ""_importdate"": {""date"": ""2025-12-29 11:10:45.558212"", ""timezone_type"": 3, ""timezone"": ""Asia/Taipei""}, ""縣市代碼"": ""63000"", ""專用標識編號"": ""臺北市旅館728號"", ""旅館名稱"": ""台北時代寓所"", ""電話或手機號碼"": ""(02)77521888"", ""營業地址"": ""100臺北市中正區林森南路7號1至14樓、7-1號1樓"", ""客房最低定價"": ""15800"", ""客房最高定價"": ""20000"", ""房間數"": ""175""}"
台北松山意舍酒店,115臺北市南港區市民大道七段8號17樓至21樓,25.0491770,121.5806260,臺北市旅館556號,,一般旅館,"{""_id"": 364, ""_importdate"": {""date"": ""2025-12-29 11:10:45.415747"", ""timezone_type"": 3, ""timezone"": ""Asia/Taipei""}, ""縣市代碼"": ""63000"", ""專用標識編號"": ""臺北市旅館556號"", ""旅館名稱"": ""台北松山意舍酒店"", ""電話或手機號碼"": ""(02)26532828"", ""營業地址"": ""115臺北市南港區市民大道七段8號17樓至21樓"", ""客房最低定價"": ""3465"", ""客房最高定價"": ""135135"", ""房間數"": ""190""}"
台北棧,100臺北市中正區許昌街40號5樓、5樓之1、5樓之2、6樓、6樓之1、6樓之2、7樓、7樓之1、7樓之2、7樓之3,,,臺北市旅館767號,,一般旅館,"{""_id"": 535, ""_importdate"": {""date"": ""2025-12-29 11:10:45.597367"", ""timezone_type"": 3, ""timezone"": ""Asia/Taipei""}, ""縣市代碼"": ""63000"", ""專用標識編號"": ""臺北市旅館767號"", ""旅館名稱"": ""台北棧"", ""電話或手機號碼"": ""(02)23313381"", ""營業地址"": ""100臺北市中正區許昌街40號5樓、5樓之1、5樓之2、6樓、6樓之1、6樓之2、7樓、7樓之1、7樓之2、7樓之3"", ""客房最低定價"": ""6000"", ""客房最高定價"": ""15000"", ""房間數"": ""34""}"
台北漫步旅店,108臺北市萬華區成都路163號2至6樓,25.0438770,121.5023670,臺北市旅館457號,,一般旅館,"{""_id"": 295, ""_importdate"": {""date"": ""2025-12-29 11:10:45.330482"", ""timezone_type"": 3, ""timezone"": ""Asia/Taipei""}, ""縣市代碼"": ""63000"", ""專用標識編號"": ""臺北市旅館457號"", ""旅館名稱"": ""台北漫步旅店"", ""電話或手機號碼"": ""(02)23831334"", ""營業地址"": ""108臺北市萬華區成都路163號2至6樓"", ""客房最低定價"": ""18000"", ""客房最高定價"": ""28000"", ""房間數"": ""27""}"
台北發現青年旅舍,104臺北市中山區民權東路二段21號5、6樓,25.0627940,121.5290880,臺北市旅館519號,,一般旅館,"{""_id"": 340, ""_importdate"": {""date"": ""2025-12-29 11:10:45.387601"", ""timezone_type"": 3, ""timezone"": ""Asia/Taipei""}, ""縣市代碼"": ""63000"", ""專用標識編號"": ""臺北市旅館519號"", ""旅館名稱"": ""台北發現青年旅舍"", ""電話或手機號碼"": ""(02)25980209"", ""營業地址"": ""104臺北市中山區民權東路二段21號5、6樓"", ""客房最低定價"": ""6000"", ""客房最高定價"": ""14000"", ""房間數"": ""7""}"
台北碧瑤飯店,105臺北市松山區八德路二段367號1-10樓,25.0478690,121.5446560,臺北市旅館087號,,一般旅館,"{""_id"": 46, ""_importdate"": {""date"": ""2025-12-29 11:10:45.020957"", ""timezone_type"": 3, ""timezone"": ""Asia/Taipei""}, ""縣市代碼"": ""63000"", ""專用標識編號"": ""臺北市旅館087號"", ""旅館名稱"": ""台北碧瑤飯店"", ""電話或手機號碼"": ""(02)27813121"", ""營業地址"": ""105臺北市松山區八德路二段367號1-10樓"", ""客房最低定價"": ""4300"", ""客房最高定價"": ""7800"", ""房間數"": ""84""}"
台北臥客旅店,103臺北市大同區甘谷街26號7樓,25.0527700,121.5108930,臺北市旅館625號,,一般旅館,"{""_id"": 416, ""_importdate"": {""date"": ""2025-12-29 11:10:45.470836"", ""timezone_type"": 3, ""timezone"": ""Asia/Taipei""}, ""縣市代碼"": ""63000"", ""專用標識編號"": ""臺北市旅館625號"", ""旅館名稱"": ""台北臥客旅店"", ""電話或手機號碼"": ""(02)25557177"", ""營業地址"": ""103臺北市大同區甘谷街26號7樓"", ""客房最低定價"": ""3000"", ""客房最高定價"": ""3000"", ""房間數"": ""13""}"
台北西門町意舍酒店,108臺北市萬華區武昌街二段77號5-10樓,25.0450770,121.5057060,臺北市旅館386號,,一般旅館,"{""_id"": 241, ""_importdate"": {""date"": ""2025-12-29 11:10:45.264569"", ""timezone_type"": 3, ""timezone"": ""Asia/Taipei""}, ""縣市代碼"": ""63000"", ""專用標識編號"": ""臺北市旅館386號"", ""旅館名稱"": ""台北西門町意舍酒店"", ""電話或手機號碼"": ""(02)23755111"", ""營業地址"": ""108臺北市萬華區武昌街二段77號5-10樓"", ""客房最低定價"": ""3927"", ""客房最高定價"": ""18249"", ""房間數"": ""162""}"
台北西門窩青年旅館,108臺北市萬華區漢中街42號8樓,25.0442260,121.5073430,臺北市旅館482號,,一般旅館,"{""_id"": 315, ""_importdate"": {""date"": ""2025-12-29 11:10:45.357110"", ""timezone_type"": 3, ""timezone"": ""Asia/Taipei""}, ""縣市代碼"": ""63000"", ""專用標識編號"": ""臺北市旅館482號"", ""旅館名稱"": ""台北西門窩青年旅館"", ""電話或手機號碼"": ""(02)23315100"", ""營業地址"": ""108臺北市萬華區漢中街42號8樓"", ""客房最低定價"": ""3000"", ""客房最高定價"": ""3000"", ""房間數"": ""6""}"
台北這地方微旅店,104臺北市中山區吉林路294號(1樓)及294之1號(2樓),,,臺北市旅館628號,,一般旅館,"{""_id"": 419, ""_importdate"": {""date"": ""2025-12-29 11:10:45.473932"", ""timezone_type"": 3, ""timezone"": ""Asia/Taipei""}, ""縣市代碼"": ""63000"", ""專用標識編號"": ""臺北市旅館628號"", ""旅館名稱"": ""台北這地方微旅店"", ""電話或手機號碼"": ""(02)25637522"", ""營業地址"": ""104臺北市中山區吉林路294號(1樓)及294之1號(2樓)"", ""客房最低定價"": ""1500"", ""客房最高定價"": ""6000"", ""房間數"": ""3""}"
台北青年國際旅館,100臺北市中正區許昌街19號1樓及4-10樓,25.0456530,121.5165370,臺北市旅館320號,,一般旅館,"{""_id"": 199, ""_importdate"": {""date"": ""2025-12-29 11:10:45.209579"", ""timezone_type"": 3, ""timezone"": ""Asia/Taipei""}, ""縣市代碼"": ""63000"", ""專用標識編號"": ""臺北市旅館320號"", ""旅館名稱"": ""台北青年國際旅館"", ""電話或手機號碼"": ""(02)23113201"", ""營業地址"": ""100臺北市中正區許昌街19號1樓及4-10樓"", ""客房最低定價"": ""2200"", ""客房最高定價"": ""7200"", ""房間數"": ""99""}"
台北馥敦飯店,105臺北市松山區復興北路315號1-7樓,25.0590970,121.5444110,臺北市旅館208號,,一般旅館,"{""_id"": 121, ""_importdate"": {""date"": ""2025-12-29 11:10:45.113186"", ""timezone_type"": 3, ""timezone"": ""Asia/Taipei""}, ""縣市代碼"": ""63000"", ""專用標識編號"": ""臺北市旅館208號"", ""旅館名稱"": ""台北馥敦飯店"", ""電話或手機號碼"": ""(02)27138181"", ""營業地址"": ""105臺北市松山區復興北路315號1-7樓"", ""客房最低定價"": ""10000"", ""客房最高定價"": ""70000"", ""房間數"": ""71""}"
台北馥敦飯店復南館,106臺北市大安區復興南路二段41號,25.0314280,121.5437670,臺北市旅館168號,,一般旅館,"{""_id"": 101, ""_importdate"": {""date"": ""2025-12-29 11:10:45.090126"", ""timezone_type"": 3, ""timezone"": ""Asia/Taipei""}, ""縣市代碼"": ""63000"", ""專用標識編號"": ""臺北市旅館168號"", ""旅館名稱"": ""台北馥敦飯店復南館"", ""電話或手機號碼"": ""(02)27031234"", ""營業地址"": ""106臺北市大安區復興南路二段41號"", ""客房最低定價"": ""2800"", ""客房最高定價"": ""30000"", ""房間數"": ""95""}"
台北馥華商旅,104臺北市中山區一江街3號、3號2樓、2樓之1至之14、3號3樓、3樓之1至之14、3號4樓、4樓之1至之14、3號5樓、5樓之1至之14、3號6樓、6樓之1至之14、3號7樓、7樓之1至之14,,,臺北市旅館275號,,一般旅館,"{""_id"": 166, ""_importdate"": {""date"": ""2025-12-29 11:10:45.173553"", ""timezone_type"": 3, ""timezone"": ""Asia/Taipei""}, ""縣市代碼"": ""63000"", ""專用標識編號"": ""臺北市旅館275號"", ""旅館名稱"": ""台北馥華商旅"", ""電話或手機號碼"": ""(02)25118896"", ""營業地址"": ""104臺北市中山區一江街3號、3號2樓、2樓之1至之14、3號3樓、3樓之1至之14、3號4樓、4樓之1至之14、3號5樓、5樓之1至之14、3號6樓、6樓之1至之14、3號7樓、7樓之1至之14"", ""客房最低定價"": ""9000"", ""客房最高定價"": ""18000"", ""房間數"": ""90""}"
台北馥華商旅南港館,115臺北市南港區三重路23號1-4樓,25.0592850,121.6140790,臺北市旅館369號,,一般旅館,"{""_id"": 230, ""_importdate"": {""date"": ""2025-12-29 11:10:45.250212"", ""timezone_type"": 3, ""timezone"": ""Asia/Taipei""}, ""縣市代碼"": ""63000"", ""專用標識編號"": ""臺北市旅館369號"", ""旅館名稱"": ""台北馥華商旅南港館"", ""電話或手機號碼"": ""(02)27852655"", ""營業地址"": ""115臺北市南港區三重路23號1-4樓"", ""客房最低定價"": ""13000"", ""客房最高定價"": ""13000"", ""房間數"": ""66""}"
台北馥華商旅敦北館,105臺北市松山區敦化北路4巷52號1至7樓,25.0502810,121.5450350,臺北市旅館419號,,一般旅館,"{""_id"": 264, ""_importdate"": {""date"": ""2025-12-29 11:10:45.291050"", ""timezone_type"": 3, ""timezone"": ""Asia/Taipei""}, ""縣市代碼"": ""63000"", ""專用標識編號"": ""臺北市旅館419號"", ""旅館名稱"": ""台北馥華商旅敦北館"", ""電話或手機號碼"": ""(02)66131300"", ""營業地址"": ""105臺北市松山區敦化北路4巷52號1至7樓"", ""客房最低定價"": ""10200"", ""客房最高定價"": ""12800"", ""房間數"": ""73""}"
台灣柒天精品旅店,108臺北市萬華區環河南路二段282號1至4樓,25.0321120,121.4910160,臺北市旅館626號,,一般旅館,"{""_id"": 417, ""_importdate"": {""date"": ""2025-12-29 11:10:45.471891"", ""timezone_type"": 3, ""timezone"": ""Asia/Taipei""}, ""縣市代碼"": ""63000"", ""專用標識編號"": ""臺北市旅館626號"", ""旅館名稱"": ""台灣柒天精品旅店"", ""電話或手機號碼"": ""(02)23085222"", ""營業地址"": ""108臺北市萬華區環河南路二段282號1至4樓"", ""客房最低定價"": ""2000"", ""客房最高定價"": ""3000"", ""房間數"": ""36""}"
台灣西鐵國際旅館,108臺北市萬華區中華路一段88號1樓、6樓至28樓,,,臺北市旅館775號,,一般旅館,"{""_id"": 543, ""_importdate"": {""date"": ""2025-12-29 11:10:45.605937"", ""timezone_type"": 3, ""timezone"": ""Asia/Taipei""}, ""縣市代碼"": ""63000"", ""專用標識編號"": ""臺北市旅館775號"", ""旅館名稱"": ""台灣西鐵國際旅館"", ""電話或手機號碼"": ""(02)23143939"", ""營業地址"": ""108臺北市萬華區中華路一段88號1樓、6樓至28樓"", ""客房最低定價"": ""11700"", ""客房最高定價"": ""18000"", ""房間數"": ""298""}"
台灣青旅,100臺北市中正區青島西路11號地下1樓,25.0449880,121.5177640,臺北市旅館584號,,一般旅館,"{""_id"": 388, ""_importdate"": {""date"": ""2025-12-29 11:10:45.440836"", ""timezone_type"": 3, ""timezone"": ""Asia/Taipei""}, ""縣市代碼"": ""63000"", ""專用標識編號"": ""臺北市旅館584號"", ""旅館名稱"": ""台灣青旅"", ""電話或手機號碼"": ""(02)23613000"", ""營業地址"": ""100臺北市中正區青島西路11號地下1樓"", ""客房最低定價"": ""4000"", ""客房最高定價"": ""5000"", ""房間數"": ""12""}"
台糖台北會館,100臺北市中正區中華路一段39號,25.0453370,121.5096700,臺北市旅館418號,,一般旅館,"{""_id"": 263, ""_importdate"": {""date"": ""2025-12-29 11:10:45.290008"", ""timezone_type"": 3, ""timezone"": ""Asia/Taipei""}, ""縣市代碼"": ""63000"", ""專用標識編號"": ""臺北市旅館418號"", ""旅館名稱"": ""台糖台北會館"", ""電話或手機號碼"": ""(02)23885522"", ""營業地址"": ""100臺北市中正區中華路一段39號"", ""客房最低定價"": ""5000"", ""客房最高定價"": ""7200"", ""房間數"": ""68""}"
合星旅館,106臺北市大安區忠孝東路四段147巷5號3樓,25.0421010,121.5496490,臺北市旅館636號,,一般旅館,"{""_id"": 427, ""_importdate"": {""date"": ""2025-12-29 11:10:45.482293"", ""timezone_type"": 3, ""timezone"": ""Asia/Taipei""}, ""縣市代碼"": ""63000"", ""專用標識編號"": ""臺北市旅館636號"", ""旅館名稱"": ""合星旅館"", ""電話或手機號碼"": ""(02)27218225"", ""營業地址"": ""106臺北市大安區忠孝東路四段147巷5號3樓"", ""客房最低定價"": ""1000"", ""客房最高定價"": ""5000"", ""房間數"": ""18""}"
合洋背包客棧,100臺北市中正區忠孝西路1段23號2、3、4樓,25.0462340,121.5189910,臺北市旅館810號,,一般旅館,"{""_id"": 578, ""_importdate"": {""date"": ""2025-12-29 11:10:45.653532"", ""timezone_type"": 3, ""timezone"": ""Asia/Taipei""}, ""縣市代碼"": ""63000"", ""專用標識編號"": ""臺北市旅館810號"", ""旅館名稱"": ""合洋背包客棧"", ""電話或手機號碼"": ""(02)23881505"", ""營業地址"": ""100臺北市中正區忠孝西路1段23號2、3、4樓"", ""客房最低定價"": ""500"", ""客房最高定價"": ""1200"", ""房間數"": ""6""}"
吉泰旅店,111臺北市士林區大東路93號1至4樓,25.0910660,121.5256040,臺北市旅館649號,,一般旅館,"{""_id"": 437, ""_importdate"": {""date"": ""2025-12-29 11:10:45.492650"", ""timezone_type"": 3, ""timezone"": ""Asia/Taipei""}, ""縣市代碼"": ""63000"", ""專用標識編號"": ""臺北市旅館649號"", ""旅館名稱"": ""吉泰旅店"", ""電話或手機號碼"": ""(02)28822278"", ""營業地址"": ""111臺北市士林區大東路93號1至4樓"", ""客房最低定價"": ""6000"", ""客房最高定價"": ""6000"", ""房間數"": ""19""}"
吉緻行旅天津館,104臺北市中山區天津街57號2至8樓,25.1158830,121.5743970,臺北市旅館177號,,一般旅館,"{""_id"": 106, ""_importdate"": {""date"": ""2025-12-29 11:10:45.095117"", ""timezone_type"": 3, ""timezone"": ""Asia/Taipei""}, ""縣市代碼"": ""63000"", ""專用標識編號"": ""臺北市旅館177號"", ""旅館名稱"": ""吉緻行旅天津館"", ""電話或手機號碼"": ""(02)25365678、 0986-778400"", ""營業地址"": ""104臺北市中山區天津街57號2至8樓 "", ""客房最低定價"": ""8800"", ""客房最高定價"": ""12000"", ""房間數"": ""55""}"
同一大飯店,104臺北市中山區農安街36號3-10樓,25.0648130,121.5270140,臺北市旅館344號,,一般旅館,"{""_id"": 214, ""_importdate"": {""date"": ""2025-12-29 11:10:45.229170"", ""timezone_type"": 3, ""timezone"": ""Asia/Taipei""}, ""縣市代碼"": ""63000"", ""專用標識編號"": ""臺北市旅館344號"", ""旅館名稱"": ""同一大飯店"", ""電話或手機號碼"": ""(02)25923977"", ""營業地址"": ""104臺北市中山區農安街36號3-10樓　"", ""客房最低定價"": ""9800"", ""客房最高定價"": ""11800"", ""房間數"": ""95""}"
君帥旅館,108臺北市萬華區成都路68號8-10樓,25.0428610,121.5051660,臺北市旅館263號,,一般旅館,"{""_id"": 159, ""_importdate"": {""date"": ""2025-12-29 11:10:45.164354"", ""timezone_type"": 3, ""timezone"": ""Asia/Taipei""}, ""縣市代碼"": ""63000"", ""專用標識編號"": ""臺北市旅館263號"", ""旅館名稱"": ""君帥旅館"", ""電話或手機號碼"": ""(02)23718812"", ""營業地址"": ""108臺北市萬華區成都路68號8-10樓"", ""客房最低定價"": ""5000"", ""客房最高定價"": ""8000"", ""房間數"": ""35""}"
和怡商務旅館,115臺北市南港區重陽路122號,25.0568710,121.5999400,臺北市旅館010號,,一般旅館,"{""_id"": 8, ""_importdate"": {""date"": ""2025-12-29 11:10:44.974341"", ""timezone_type"": 3, ""timezone"": ""Asia/Taipei""}, ""縣市代碼"": ""63000"", ""專用標識編號"": ""臺北市旅館010號"", ""旅館名稱"": ""和怡商務旅館"", ""電話或手機號碼"": ""(02)27890505"", ""營業地址"": ""115臺北市南港區重陽路122號"", ""客房最低定價"": ""3380"", ""客房最高定價"": ""6140"", ""房間數"": ""43""}"
和旅瓏旅館西門館,108臺北市萬華區西寧南路105號2至5樓、2樓之1至5樓之1,,,臺北市旅館713號,,一般旅館,"{""_id"": 488, ""_importdate"": {""date"": ""2025-12-29 11:10:45.546977"", ""timezone_type"": 3, ""timezone"": ""Asia/Taipei""}, ""縣市代碼"": ""63000"", ""專用標識編號"": ""臺北市旅館713號"", ""旅館名稱"": ""和旅瓏旅館西門館"", ""電話或手機號碼"": ""(02)23616569"", ""營業地址"": ""108臺北市萬華區西寧南路105號2至5樓、2樓之1至5樓之1"", ""客房最低定價"": ""3150"", ""客房最高定價"": ""26000"", ""房間數"": ""42""}"
和昌商務旅館台北西門館,108臺北市萬華區桂林路24號1-5樓,25.0382490,121.4958990,臺北市旅館635號,,一般旅館,"{""_id"": 426, ""_importdate"": {""date"": ""2025-12-29 11:10:45.481403"", ""timezone_type"": 3, ""timezone"": ""Asia/Taipei""}, ""縣市代碼"": ""63000"", ""專用標識編號"": ""臺北市旅館635號"", ""旅館名稱"": ""和昌商務旅館台北西門館"", ""電話或手機號碼"": ""(02)23088828"", ""營業地址"": ""108臺北市萬華區桂林路24號1-5樓"", ""客房最低定價"": ""3500"", ""客房最高定價"": ""4800"", ""房間數"": ""16""}"
和苑三井花園飯店  台北忠孝,106臺北市大安區忠孝東路三段30號,25.0418910,121.5342710,臺北市旅館723號,,一般旅館,"{""_id"": 495, ""_importdate"": {""date"": ""2025-12-29 11:10:45.553981"", ""timezone_type"": 3, ""timezone"": ""Asia/Taipei""}, ""縣市代碼"": ""63000"", ""專用標識編號"": ""臺北市旅館723號"", ""旅館名稱"": ""和苑三井花園飯店  台北忠孝"", ""電話或手機號碼"": ""(02)27811131"", ""營業地址"": ""106臺北市大安區忠孝東路三段30號"", ""客房最低定價"": ""12500"", ""客房最高定價"": ""40000"", ""房間數"": ""297""}"
和逸 台北忠孝館,100臺北市中正區忠孝東路一段31號1至12樓,25.0445370,121.5253330,臺北市旅館441號,,一般旅館,"{""_id"": 281, ""_importdate"": {""date"": ""2025-12-29 11:10:45.311487"", ""timezone_type"": 3, ""timezone"": ""Asia/Taipei""}, ""縣市代碼"": ""63000"", ""專用標識編號"": ""臺北市旅館441號"", ""旅館名稱"": ""和逸 台北忠孝館"", ""電話或手機號碼"": ""(02)77253399"", ""營業地址"": ""100臺北市中正區忠孝東路一段31號1至12樓"", ""客房最低定價"": ""15000"", ""客房最高定價"": ""85000"", ""房間數"": ""123""}"
和逸．台北民生館,104臺北市中山區民生東路二段178號1至12樓,25.0576990,121.5362090,臺北市旅館433號,,一般旅館,"{""_id"": 275, ""_importdate"": {""date"": ""2025-12-29 11:10:45.303242"", ""timezone_type"": 3, ""timezone"": ""Asia/Taipei""}, ""縣市代碼"": ""63000"", ""專用標識編號"": ""臺北市旅館433號"", ""旅館名稱"": ""和逸．台北民生館"", ""電話或手機號碼"": ""(02)77063399"", ""營業地址"": ""104臺北市中山區民生東路二段178號1至12樓"", ""客房最低定價"": ""13000"", ""客房最高定價"": ""85000"", ""房間數"": ""134""}"
品格子旅店,100臺北市中正區公園路13號10樓,25.0454900,121.5174000,臺北市旅館438號,,一般旅館,"{""_id"": 279, ""_importdate"": {""date"": ""2025-12-29 11:10:45.308464"", ""timezone_type"": 3, ""timezone"": ""Asia/Taipei""}, ""縣市代碼"": ""63000"", ""專用標識編號"": ""臺北市旅館438號"", ""旅館名稱"": ""品格子旅店"", ""電話或手機號碼"": ""(02)23114511"", ""營業地址"": ""100臺北市中正區公園路13號10樓"", ""客房最低定價"": ""6000"", ""客房最高定價"": ""6000"", ""房間數"": ""34""}"
品格子旅店西門館,108臺北市萬華區西寧南路30號8樓,25.0458900,121.5067290,臺北市旅館492號,,一般旅館,"{""_id"": 323, ""_importdate"": {""date"": ""2025-12-29 11:10:45.367846"", ""timezone_type"": 3, ""timezone"": ""Asia/Taipei""}, ""縣市代碼"": ""63000"", ""專用標識編號"": ""臺北市旅館492號"", ""旅館名稱"": ""品格子旅店西門館"", ""電話或手機號碼"": ""(02)23618008"", ""營業地址"": ""108臺北市萬華區西寧南路30號8樓"", ""客房最低定價"": ""750"", ""客房最高定價"": ""7600"", ""房間數"": ""35""}"
唐門客棧,100臺北市中正區信義路二段33號2樓,25.0349250,121.5258470,臺北市旅館229號,,一般旅館,"{""_id"": 135, ""_importdate"": {""date"": ""2025-12-29 11:10:45.131881"", ""timezone_type"": 3, ""timezone"": ""Asia/Taipei""}, ""縣市代碼"": ""63000"", ""專用標識編號"": ""臺北市旅館229號"", ""旅館名稱"": ""唐門客棧"", ""電話或手機號碼"": ""(02)23963322"", ""營業地址"": ""100臺北市中正區信義路二段33號2樓"", ""客房最低定價"": ""2000"", ""客房最高定價"": ""3000"", ""房間數"": ""28""}"
喜園旅館,108臺北市萬華區中華路一段90號3樓、3樓之1、3樓之2,,,臺北市旅館756號,,一般旅館,"{""_id"": 524, ""_importdate"": {""date"": ""2025-12-29 11:10:45.585099"", ""timezone_type"": 3, ""timezone"": ""Asia/Taipei""}, ""縣市代碼"": ""63000"", ""專用標識編號"": ""臺北市旅館756號"", ""旅館名稱"": ""喜園旅館"", ""電話或手機號碼"": ""(02)77309920"", ""營業地址"": ""108臺北市萬華區中華路一段90號3樓、3樓之1、3樓之2"", ""客房最低定價"": ""25000"", ""客房最高定價"": ""25000"", ""房間數"": ""35""}"
喜瑞飯店,104臺北市中山區長安東路一段64號B1-10樓,25.0479320,121.5293770,臺北市旅館296號,,一般旅館,"{""_id"": 179, ""_importdate"": {""date"": ""2025-12-29 11:10:45.187464"", ""timezone_type"": 3, ""timezone"": ""Asia/Taipei""}, ""縣市代碼"": ""63000"", ""專用標識編號"": ""臺北市旅館296號"", ""旅館名稱"": ""喜瑞飯店"", ""電話或手機號碼"": ""(02)25410077"", ""營業地址"": ""104臺北市中山區長安東路一段64號B1-10樓"", ""客房最低定價"": ""10500"", ""客房最高定價"": ""19000"", ""房間數"": ""61""}"
喬合大飯店,106臺北市大安區復興南路一段136號1至4樓；復興南路一段126巷10弄1號等、3號2樓至2樓之8、3號3樓至3樓之8、3號4樓至4樓之10、3號5至5樓之10、3號6樓至6樓之9,,,臺北市旅館126號,,一般旅館,"{""_id"": 77, ""_importdate"": {""date"": ""2025-12-29 11:10:45.062098"", ""timezone_type"": 3, ""timezone"": ""Asia/Taipei""}, ""縣市代碼"": ""63000"", ""專用標識編號"": ""臺北市旅館126號"", ""旅館名稱"": ""喬合大飯店"", ""電話或手機號碼"": ""(02)27765877"", ""營業地址"": ""106臺北市大安區復興南路一段136號1至4樓；復興南路一段126巷10弄1號等、3號2樓至2樓之8、3號3樓至3樓之8、3號4樓至4樓之10、3號5至5樓之10、3號6樓至6樓之9"", ""客房最低定價"": ""10000"", ""客房最高定價"": ""14000"", ""房間數"": ""69""}"
嘉榮旅社,103臺北市大同區太原路28巷11號2至4樓,25.0500870,121.5147280,臺北市旅館196號,,一般旅館,"{""_id"": 117, ""_importdate"": {""date"": ""2025-12-29 11:10:45.107887"", ""timezone_type"": 3, ""timezone"": ""Asia/Taipei""}, ""縣市代碼"": ""63000"", ""專用標識編號"": ""臺北市旅館196號"", ""旅館名稱"": ""嘉榮旅社"", ""電話或手機號碼"": ""(02)25585887"", ""營業地址"": ""103臺北市大同區太原路28巷11號2至4樓"", ""客房最低定價"": ""1800"", ""客房最高定價"": ""1800"", ""房間數"": ""15""}"
嘉賓閣旅館,112臺北市北投區光明路230號B1-7樓,25.1358730,121.5059850,臺北市旅館100號,,一般旅館,"{""_id"": 55, ""_importdate"": {""date"": ""2025-12-29 11:10:45.032858"", ""timezone_type"": 3, ""timezone"": ""Asia/Taipei""}, ""縣市代碼"": ""63000"", ""專用標識編號"": ""臺北市旅館100號"", ""旅館名稱"": ""嘉賓閣旅館"", ""電話或手機號碼"": ""(02)28930055"", ""營業地址"": ""112臺北市北投區光明路230號B1-7樓"", ""客房最低定價"": ""9800"", ""客房最高定價"": ""12000"", ""房間數"": ""47""}"
囍閱文創旅店,108臺北市萬華區長沙街二段11號10樓,25.0407070,121.5069330,臺北市旅館147號,,一般旅館,"{""_id"": 90, ""_importdate"": {""date"": ""2025-12-29 11:10:45.078866"", ""timezone_type"": 3, ""timezone"": ""Asia/Taipei""}, ""縣市代碼"": ""63000"", ""專用標識編號"": ""臺北市旅館147號"", ""旅館名稱"": ""囍閱文創旅店"", ""電話或手機號碼"": ""(02)23886235"", ""營業地址"": ""108臺北市萬華區長沙街二段11號10樓"", ""客房最低定價"": ""6200"", ""客房最高定價"": ""9000"", ""房間數"": ""20""}"
國際大旅館,112臺北市北投區湖山路一段7號,25.1522210,121.5480280,臺北市旅館022號,,一般旅館,"{""_id"": 13, ""_importdate"": {""date"": ""2025-12-29 11:10:44.979892"", ""timezone_type"": 3, ""timezone"": ""Asia/Taipei""}, ""縣市代碼"": ""63000"", ""專用標識編號"": ""臺北市旅館022號"", ""旅館名稱"": ""國際大旅館"", ""電話或手機號碼"": ""(02)28617100"", ""營業地址"": ""112臺北市北投區湖山路一段7號"", ""客房最低定價"": ""2310"", ""客房最高定價"": ""3190"", ""房間數"": ""44""}"
在家行旅,104臺北市中山區中山北路二段65巷2弄3號1-4樓,,,臺北市旅館215號,,一般旅館,"{""_id"": 126, ""_importdate"": {""date"": ""2025-12-29 11:10:45.119813"", ""timezone_type"": 3, ""timezone"": ""Asia/Taipei""}, ""縣市代碼"": ""63000"", ""專用標識編號"": ""臺北市旅館215號"", ""旅館名稱"": ""在家行旅 "", ""電話或手機號碼"": ""(02)25413959"", ""營業地址"": ""104臺北市中山區中山北路二段65巷2弄3號1-4樓     "", ""客房最低定價"": ""1000"", ""客房最高定價"": ""6200"", ""房間數"": ""15""}"
在家行旅南西館,103臺北市大同區寧夏路11號2樓、2樓之1、2樓之2、2樓之3,,,臺北市旅館809號,,一般旅館,"{""_id"": 577, ""_importdate"": {""date"": ""2025-12-29 11:10:45.652393"", ""timezone_type"": 3, ""timezone"": ""Asia/Taipei""}, ""縣市代碼"": ""63000"", ""專用標識編號"": ""臺北市旅館809號"", ""旅館名稱"": ""在家行旅南西館"", ""電話或手機號碼"": ""(02)25413959、 0906-825557"", ""營業地址"": ""103臺北市大同區寧夏路11號2樓、2樓之1、2樓之2、2樓之3"", ""客房最低定價"": ""5000"", ""客房最高定價"": ""30000"", ""房間數"": ""40""}"
在家行旅西門館,108臺北市萬華區昆明街96巷8號1樓,25.0447850,121.5045590,臺北市旅館582號,,一般旅館,"{""_id"": 386, ""_importdate"": {""date"": ""2025-12-29 11:10:45.438668"", ""timezone_type"": 3, ""timezone"": ""Asia/Taipei""}, ""縣市代碼"": ""63000"", ""專用標識編號"": ""臺北市旅館582號"", ""旅館名稱"": ""在家行旅西門館"", ""電話或手機號碼"": ""(02)23619000"", ""營業地址"": ""108臺北市萬華區昆明街96巷8號1樓"", ""客房最低定價"": ""5000"", ""客房最高定價"": ""20000"", ""房間數"": ""5""}"
城市商旅 北門館,103臺北市大同區長安西路265號1至6樓及267號1至6樓,,,臺北市旅館640號,,一般旅館,"{""_id"": 429, ""_importdate"": {""date"": ""2025-12-29 11:10:45.484386"", ""timezone_type"": 3, ""timezone"": ""Asia/Taipei""}, ""縣市代碼"": ""63000"", ""專用標識編號"": ""臺北市旅館640號"", ""旅館名稱"": ""城市商旅 北門館"", ""電話或手機號碼"": ""(02)25525777"", ""營業地址"": ""103臺北市大同區長安西路265號1至6樓及267號1至6樓"", ""客房最低定價"": ""9000"", ""客房最高定價"": ""12000"", ""房間數"": ""65""}"
城市商旅-台北南西館,103臺北市大同區南京西路169號,25.0540530,121.5127260,臺北市旅館277號,,一般旅館,"{""_id"": 167, ""_importdate"": {""date"": ""2025-12-29 11:10:45.174935"", ""timezone_type"": 3, ""timezone"": ""Asia/Taipei""}, ""縣市代碼"": ""63000"", ""專用標識編號"": ""臺北市旅館277號"", ""旅館名稱"": ""城市商旅-台北南西館"", ""電話或手機號碼"": ""(02)25507722"", ""營業地址"": ""103臺北市大同區南京西路169號"", ""客房最低定價"": ""7500"", ""客房最高定價"": ""20000"", ""房間數"": ""80""}"
城市商旅北門二館,103臺北市大同區長安西路271號2樓至4樓、275號1樓至4樓,,,臺北市旅館758號,,一般旅館,"{""_id"": 526, ""_importdate"": {""date"": ""2025-12-29 11:10:45.587184"", ""timezone_type"": 3, ""timezone"": ""Asia/Taipei""}, ""縣市代碼"": ""63000"", ""專用標識編號"": ""臺北市旅館758號"", ""旅館名稱"": ""城市商旅北門二館"", ""電話或手機號碼"": ""(02)25525777"", ""營業地址"": ""103臺北市大同區長安西路271號2樓至4樓、275號1樓至4樓"", ""客房最低定價"": ""9000"", ""客房最高定價"": ""12000"", ""房間數"": ""19""}"
城市商旅南東館,105臺北市松山區南京東路五段411號地下三樓至7樓,,,臺北市旅館374號,,一般旅館,"{""_id"": 233, ""_importdate"": {""date"": ""2025-12-29 11:10:45.254145"", ""timezone_type"": 3, ""timezone"": ""Asia/Taipei""}, ""縣市代碼"": ""63000"", ""專用標識編號"": ""臺北市旅館374號"", ""旅館名稱"": ""城市商旅南東館"", ""電話或手機號碼"": ""(02)27425888"", ""營業地址"": ""105臺北市松山區南京東路五段411號地下三樓至7樓"", ""客房最低定價"": ""3000"", ""客房最高定價"": ""20000"", ""房間數"": ""127""}"
城市商旅德立莊二館,100臺北市中正區衡陽路97號2樓、97之1號2樓、99號2樓、101號2樓、101號2樓之1、103號2樓、103號2樓之1、105號2樓、延平南路110號2-4樓,,,臺北市旅館750號,,一般旅館,"{""_id"": 518, ""_importdate"": {""date"": ""2025-12-29 11:10:45.578958"", ""timezone_type"": 3, ""timezone"": ""Asia/Taipei""}, ""縣市代碼"": ""63000"", ""專用標識編號"": ""臺北市旅館750號"", ""旅館名稱"": ""城市商旅德立莊二館"", ""電話或手機號碼"": ""(02)23703258"", ""營業地址"": ""100臺北市中正區衡陽路97號2樓、97之1號2樓、99號2樓、101號2樓、101號2樓之1、103號2樓、103號2樓之1、105號2樓、延平南路110號2-4樓"", ""客房最低定價"": ""14000"", ""客房最高定價"": ""16000"", ""房間數"": ""199""}"
城市商旅德立莊分館,100臺北市中正區秀山街4號5-12樓、15樓；衡陽路99號5-12樓、15樓；延平南路110號5-11樓、15樓,,,臺北市旅館514號,,一般旅館,"{""_id"": 336, ""_importdate"": {""date"": ""2025-12-29 11:10:45.383371"", ""timezone_type"": 3, ""timezone"": ""Asia/Taipei""}, ""縣市代碼"": ""63000"", ""專用標識編號"": ""臺北市旅館514號"", ""旅館名稱"": ""城市商旅德立莊分館"", ""電話或手機號碼"": ""(02)23757777"", ""營業地址"": ""100臺北市中正區秀山街4號5-12樓、15樓；衡陽路99號5-12樓、15樓；延平南路110號5-11樓、15樓"", ""客房最低定價"": ""18000"", ""客房最高定價"": ""20000"", ""房間數"": ""535""}"
城市商旅昆明館（HOTEL PAPA WHALE）,108臺北市萬華區昆明街46號地下1樓、46號及46號2至4樓、4樓之2、4樓之3,,,臺北市旅館575號,,一般旅館,"{""_id"": 379, ""_importdate"": {""date"": ""2025-12-29 11:10:45.431046"", ""timezone_type"": 3, ""timezone"": ""Asia/Taipei""}, ""縣市代碼"": ""63000"", ""專用標識編號"": ""臺北市旅館575號"", ""旅館名稱"": ""城市商旅昆明館（HOTEL PAPA WHALE）"", ""電話或手機號碼"": ""(02)23311177"", ""營業地址"": ""108臺北市萬華區昆明街46號地下1樓、46號及46號2至4樓、4樓之2、4樓之3"", ""客房最低定價"": ""12020"", ""客房最高定價"": ""22000"", ""房間數"": ""335""}"
城市商旅站前館,103臺北市大同區延平北路一段51號1至3樓及53號1樓,,,臺北市旅館701號,,一般旅館,"{""_id"": 478, ""_importdate"": {""date"": ""2025-12-29 11:10:45.536659"", ""timezone_type"": 3, ""timezone"": ""Asia/Taipei""}, ""縣市代碼"": ""63000"", ""專用標識編號"": ""臺北市旅館701號"", ""旅館名稱"": ""城市商旅站前館"", ""電話或手機號碼"": ""(02)25507000"", ""營業地址"": ""103臺北市大同區延平北路一段51號1至3樓及53號1樓"", ""客房最低定價"": ""13200"", ""客房最高定價"": ""19800"", ""房間數"": ""92""}"
城美行旅,"100臺北市中正區漢口街一段88,90號1-7樓",25.0451020,121.5119310,臺北市旅館094號,,一般旅館,"{""_id"": 51, ""_importdate"": {""date"": ""2025-12-29 11:10:45.027621"", ""timezone_type"": 3, ""timezone"": ""Asia/Taipei""}, ""縣市代碼"": ""63000"", ""專用標識編號"": ""臺北市旅館094號"", ""旅館名稱"": ""城美行旅"", ""電話或手機號碼"": ""(02)23147305"", ""營業地址"": ""100臺北市中正區漢口街一段88,90號1-7樓"", ""客房最低定價"": ""1820"", ""客房最高定價"": ""12000"", ""房間數"": ""59""}"
城鄉旅坊台北,104臺北市中山區松江路95之1號4樓,25.0574660,121.5308230,臺北市旅館659號,,一般旅館,"{""_id"": 445, ""_importdate"": {""date"": ""2025-12-29 11:10:45.500698"", ""timezone_type"": 3, ""timezone"": ""Asia/Taipei""}, ""縣市代碼"": ""63000"", ""專用標識編號"": ""臺北市旅館659號"", ""旅館名稱"": ""城鄉旅坊台北"", ""電話或手機號碼"": ""(02)25029955"", ""營業地址"": ""104臺北市中山區松江路95之1號4樓"", ""客房最低定價"": ""3880"", ""客房最高定價"": ""9880"", ""房間數"": ""11""}"
士林町旅店,111臺北市士林區安平街26號1至4樓,25.0884970,121.5250640,臺北市旅館182號,,一般旅館,"{""_id"": 109, ""_importdate"": {""date"": ""2025-12-29 11:10:45.098169"", ""timezone_type"": 3, ""timezone"": ""Asia/Taipei""}, ""縣市代碼"": ""63000"", ""專用標識編號"": ""臺北市旅館182號"", ""旅館名稱"": ""士林町旅店"", ""電話或手機號碼"": ""(02)28813133"", ""營業地址"": ""111臺北市士林區安平街26號1至4樓"", ""客房最低定價"": ""1680"", ""客房最高定價"": ""4200"", ""房間數"": ""10""}"
壹零壹艾美琪旅店,106臺北市大安區復興南路一段126巷1號4樓,25.0432540,121.5431190,臺北市旅館526號,,一般旅館,"{""_id"": 345, ""_importdate"": {""date"": ""2025-12-29 11:10:45.392947"", ""timezone_type"": 3, ""timezone"": ""Asia/Taipei""}, ""縣市代碼"": ""63000"", ""專用標識編號"": ""臺北市旅館526號"", ""旅館名稱"": ""壹零壹艾美琪旅店"", ""電話或手機號碼"": ""(02)27728101"", ""營業地址"": ""106臺北市大安區復興南路一段126巷1號4樓"", ""客房最低定價"": ""18000"", ""客房最高定價"": ""28800"", ""房間數"": ""36""}"
多郎明哥旅館,106臺北市大安區信義路三段73號,25.0288620,121.5394680,臺北市旅館317號,,一般旅館,"{""_id"": 196, ""_importdate"": {""date"": ""2025-12-29 11:10:45.205694"", ""timezone_type"": 3, ""timezone"": ""Asia/Taipei""}, ""縣市代碼"": ""63000"", ""專用標識編號"": ""臺北市旅館317號"", ""旅館名稱"": ""多郎明哥旅館"", ""電話或手機號碼"": ""(02)27001200"", ""營業地址"": ""106臺北市大安區信義路三段73號"", ""客房最低定價"": ""2580"", ""客房最高定價"": ""12000"", ""房間數"": ""30""}"
夜光商旅,108臺北市萬華區內江街55巷11號1至4樓、13號2至4樓,,,臺北市旅館145號,,一般旅館,"{""_id"": 88, ""_importdate"": {""date"": ""2025-12-29 11:10:45.076835"", ""timezone_type"": 3, ""timezone"": ""Asia/Taipei""}, ""縣市代碼"": ""63000"", ""專用標識編號"": ""臺北市旅館145號"", ""旅館名稱"": ""夜光商旅"", ""電話或手機號碼"": ""(02)23815059"", ""營業地址"": ""108臺北市萬華區內江街55巷11號1至4樓、13號2至4樓"", ""客房最低定價"": ""2000"", ""客房最高定價"": ""4200"", ""房間數"": ""16""}"
大來商旅,105臺北市松山區長春路432號1-7樓,25.0544410,121.5448800,臺北市旅館007號,,一般旅館,"{""_id"": 6, ""_importdate"": {""date"": ""2025-12-29 11:10:44.971559"", ""timezone_type"": 3, ""timezone"": ""Asia/Taipei""}, ""縣市代碼"": ""63000"", ""專用標識編號"": ""臺北市旅館007號"", ""旅館名稱"": ""大來商旅"", ""電話或手機號碼"": ""(02)27160011"", ""營業地址"": ""105臺北市松山區長春路432號1-7樓"", ""客房最低定價"": ""2000"", ""客房最高定價"": ""12000"", ""房間數"": ""62""}"
大倉久和大飯店,104臺北市中山區南京東路1段9號,25.0533310,121.5337000,臺北市旅館395號,,一般旅館,"{""_id"": 247, ""_importdate"": {""date"": ""2025-12-29 11:10:45.272400"", ""timezone_type"": 3, ""timezone"": ""Asia/Taipei""}, ""縣市代碼"": ""63000"", ""專用標識編號"": ""臺北市旅館395號"", ""旅館名稱"": ""大倉久和大飯店"", ""電話或手機號碼"": ""(02)25231111"", ""營業地址"": ""104臺北市中山區南京東路1段9號"", ""客房最低定價"": ""50000"", ""客房最高定價"": ""160000"", ""房間數"": ""208""}"
大光瀛商旅,100臺北市中正區忠孝西路1段50號地下3層,25.0462340,121.5189910,臺北市旅館797號,,一般旅館,"{""_id"": 565, ""_importdate"": {""date"": ""2025-12-29 11:10:45.640472"", ""timezone_type"": 3, ""timezone"": ""Asia/Taipei""}, ""縣市代碼"": ""63000"", ""專用標識編號"": ""臺北市旅館797號"", ""旅館名稱"": ""大光瀛商旅"", ""電話或手機號碼"": ""(02)23705590"", ""營業地址"": ""100臺北市中正區忠孝西路1段50號地下3層"", ""客房最低定價"": ""3280"", ""客房最高定價"": ""3680"", ""房間數"": ""49""}"
大地清旅,104臺北市中山區長安東路二段246號4至5樓,25.0481760,121.5431090,臺北市旅館462號,,一般旅館,"{""_id"": 300, ""_importdate"": {""date"": ""2025-12-29 11:10:45.337172"", ""timezone_type"": 3, ""timezone"": ""Asia/Taipei""}, ""縣市代碼"": ""63000"", ""專用標識編號"": ""臺北市旅館462號"", ""旅館名稱"": ""大地清旅"", ""電話或手機號碼"": ""(02)27110102"", ""營業地址"": ""104臺北市中山區長安東路二段246號4至5樓"", ""客房最低定價"": ""2500"", ""客房最高定價"": ""8500"", ""房間數"": ""36""}"
大地酒店,112臺北市北投區奇岩路1號,25.1289140,121.5080200,臺北市旅館318號,,一般旅館,"{""_id"": 197, ""_importdate"": {""date"": ""2025-12-29 11:10:45.206960"", ""timezone_type"": 3, ""timezone"": ""Asia/Taipei""}, ""縣市代碼"": ""63000"", ""專用標識編號"": ""臺北市旅館318號"", ""旅館名稱"": ""大地酒店"", ""電話或手機號碼"": ""(02)55518888"", ""營業地址"": ""112臺北市北投區奇岩路1號"", ""客房最低定價"": ""13800"", ""客房最高定價"": ""60000"", ""房間數"": ""48""}"
大安公園旅店,100臺北市中正區信義路2段271號8樓,25.0342520,121.5427380,臺北市旅館579號,,一般旅館,"{""_id"": 383, ""_importdate"": {""date"": ""2025-12-29 11:10:45.435408"", ""timezone_type"": 3, ""timezone"": ""Asia/Taipei""}, ""縣市代碼"": ""63000"", ""專用標識編號"": ""臺北市旅館579號"", ""旅館名稱"": ""大安公園旅店"", ""電話或手機號碼"": ""(02)23965222"", ""營業地址"": ""100臺北市中正區信義路2段271號8樓"", ""客房最低定價"": ""650"", ""客房最高定價"": ""18000"", ""房間數"": ""13""}"
大師會館國際酒店,103臺北市大同區市民大道1段211號16樓等25室,25.0492620,121.5140590,臺北市旅館432號,,一般旅館,"{""_id"": 274, ""_importdate"": {""date"": ""2025-12-29 11:10:45.301818"", ""timezone_type"": 3, ""timezone"": ""Asia/Taipei""}, ""縣市代碼"": ""63000"", ""專用標識編號"": ""臺北市旅館432號"", ""旅館名稱"": ""大師會館國際酒店"", ""電話或手機號碼"": ""(02)25597722"", ""營業地址"": ""103臺北市大同區市民大道1段211號16樓等25室"", ""客房最低定價"": ""6000"", ""客房最高定價"": ""15500"", ""房間數"": ""24""}"
大新飯店,104臺北市中山區長春路246號11-12樓,25.0546000,121.5383750,臺北市旅館253號,,一般旅館,"{""_id"": 150, ""_importdate"": {""date"": ""2025-12-29 11:10:45.152895"", ""timezone_type"": 3, ""timezone"": ""Asia/Taipei""}, ""縣市代碼"": ""63000"", ""專用標識編號"": ""臺北市旅館253號"", ""旅館名稱"": ""大新飯店"", ""電話或手機號碼"": ""(02)25068866"", ""營業地址"": ""104臺北市中山區長春路246號11-12樓"", ""客房最低定價"": ""9800"", ""客房最高定價"": ""11800"", ""房間數"": ""11""}"
大榮大旅社,108臺北市萬華區西寧南路185號2-4樓,25.0414560,121.5060790,臺北市旅館097號,,一般旅館,"{""_id"": 53, ""_importdate"": {""date"": ""2025-12-29 11:10:45.030199"", ""timezone_type"": 3, ""timezone"": ""Asia/Taipei""}, ""縣市代碼"": ""63000"", ""專用標識編號"": ""臺北市旅館097號"", ""旅館名稱"": ""大榮大旅社"", ""電話或手機號碼"": ""(02)23316527"", ""營業地址"": ""108臺北市萬華區西寧南路185號2-4樓"", ""客房最低定價"": ""900"", ""客房最高定價"": ""1300"", ""房間數"": ""17""}"
大欣大飯店,104臺北市中山區中山北路二段27巷2-2號1-5樓,,,臺北市旅館172號,,一般旅館,"{""_id"": 103, ""_importdate"": {""date"": ""2025-12-29 11:10:45.092050"", ""timezone_type"": 3, ""timezone"": ""Asia/Taipei""}, ""縣市代碼"": ""63000"", ""專用標識編號"": ""臺北市旅館172號"", ""旅館名稱"": ""大欣大飯店"", ""電話或手機號碼"": ""(02)25652155"", ""營業地址"": ""104臺北市中山區中山北路二段27巷2-2號1-5樓 "", ""客房最低定價"": ""5500"", ""客房最高定價"": ""6500"", ""房間數"": ""32""}"
大湖璞旅,114臺北市內湖區成功路五段462號1樓、3樓至14樓、3樓之1至3樓之6、4樓之1至4樓之13、5樓之2至5樓之13、6樓之2至6樓之13、7樓之2至7樓之12、8樓之1至8樓之13、 9樓之1至9樓之13、10樓之,,,臺北市旅館732號,,一般旅館,"{""_id"": 503, ""_importdate"": {""date"": ""2025-12-29 11:10:45.562675"", ""timezone_type"": 3, ""timezone"": ""Asia/Taipei""}, ""縣市代碼"": ""63000"", ""專用標識編號"": ""臺北市旅館732號"", ""旅館名稱"": ""大湖璞旅"", ""電話或手機號碼"": ""(02)26338555"", ""營業地址"": ""114臺北市內湖區成功路五段462號1樓、3樓至14樓、3樓之1至3樓之6、4樓之1至4樓之13、5樓之2至5樓之13、6樓之2至6樓之13、7樓之2至7樓之12、8樓之1至8樓之13、 9樓之1至9樓之13、10樓之"", ""客房最低定價"": ""5000"", ""客房最高定價"": ""30000"", ""房間數"": ""148""}"
天使青旅,100臺北市中正區衡陽路51號2樓之2,25.0423810,121.5121810,臺北市旅館532號,,一般旅館,"{""_id"": 348, ""_importdate"": {""date"": ""2025-12-29 11:10:45.396183"", ""timezone_type"": 3, ""timezone"": ""Asia/Taipei""}, ""縣市代碼"": ""63000"", ""專用標識編號"": ""臺北市旅館532號"", ""旅館名稱"": ""天使青旅"", ""電話或手機號碼"": ""(02)23131319"", ""營業地址"": ""100臺北市中正區衡陽路51號2樓之2"", ""客房最低定價"": ""399"", ""客房最高定價"": ""1320"", ""房間數"": ""8""}"
天成文旅 華山町,100臺北市中正區忠孝東路二段79號（1-3樓）,25.0432840,121.5302540,臺北市旅館657號,,一般旅館,"{""_id"": 444, ""_importdate"": {""date"": ""2025-12-29 11:10:45.499673"", ""timezone_type"": 3, ""timezone"": ""Asia/Taipei""}, ""縣市代碼"": ""63000"", ""專用標識編號"": ""臺北市旅館657號"", ""旅館名稱"": ""天成文旅 華山町"", ""電話或手機號碼"": ""(02)23515188"", ""營業地址"": ""100臺北市中正區忠孝東路二段79號（1-3樓）"", ""客房最低定價"": ""6000"", ""客房最高定價"": ""9500"", ""房間數"": ""72""}"
天母之星商務會館,"112臺北市北投區石牌路一段166巷46號,2樓至7樓、2樓之1至5樓之1、2樓之2至5樓之2",,,臺北市旅館768號,,一般旅館,"{""_id"": 536, ""_importdate"": {""date"": ""2025-12-29 11:10:45.598472"", ""timezone_type"": 3, ""timezone"": ""Asia/Taipei""}, ""縣市代碼"": ""63000"", ""專用標識編號"": ""臺北市旅館768號"", ""旅館名稱"": ""天母之星商務會館"", ""電話或手機號碼"": ""(02)28231896"", ""營業地址"": ""112臺北市北投區石牌路一段166巷46號,2樓至7樓、2樓之1至5樓之1、2樓之2至5樓之2"", ""客房最低定價"": ""6000"", ""客房最高定價"": ""12000"", ""房間數"": ""17""}"
天閣酒店(台北南西),104臺北市中山區南京西路3號1至9樓,25.0525850,121.5214980,臺北市旅館371號,,一般旅館,"{""_id"": 232, ""_importdate"": {""date"": ""2025-12-29 11:10:45.252896"", ""timezone_type"": 3, ""timezone"": ""Asia/Taipei""}, ""縣市代碼"": ""63000"", ""專用標識編號"": ""臺北市旅館371號"", ""旅館名稱"": ""天閣酒店(台北南西)"", ""電話或手機號碼"": ""(02)25679999"", ""營業地址"": ""104臺北市中山區南京西路3號1至9樓"", ""客房最低定價"": ""11800"", ""客房最高定價"": ""11800"", ""房間數"": ""52""}"
天閣酒店(台北林森),104臺北市中山區中山北路一段83巷15號1樓至6樓,,,臺北市旅館295號,,一般旅館,"{""_id"": 178, ""_importdate"": {""date"": ""2025-12-29 11:10:45.186409"", ""timezone_type"": 3, ""timezone"": ""Asia/Taipei""}, ""縣市代碼"": ""63000"", ""專用標識編號"": ""臺北市旅館295號"", ""旅館名稱"": ""天閣酒店(台北林森)"", ""電話或手機號碼"": ""(02)25319999"", ""營業地址"": ""104臺北市中山區中山北路一段83巷15號1樓至6樓"", ""客房最低定價"": ""12000"", ""客房最高定價"": ""20000"", ""房間數"": ""65""}"
天閣酒店(台北長安),104臺北市中山區林森北路80號1至14樓,25.0572020,121.5254970,臺北市旅館423號,,一般旅館,"{""_id"": 267, ""_importdate"": {""date"": ""2025-12-29 11:10:45.294225"", ""timezone_type"": 3, ""timezone"": ""Asia/Taipei""}, ""縣市代碼"": ""63000"", ""專用標識編號"": ""臺北市旅館423號"", ""旅館名稱"": ""天閣酒店(台北長安) "", ""電話或手機號碼"": ""(02)25317777"", ""營業地址"": ""104臺北市中山區林森北路80號1至14樓  "", ""客房最低定價"": ""8200"", ""客房最高定價"": ""20000"", ""房間數"": ""80""}"
天閣酒店台北信義,110臺北市信義區忠孝東路五段297號1-6樓,25.0411480,121.5728470,臺北市旅館303號,,一般旅館,"{""_id"": 186, ""_importdate"": {""date"": ""2025-12-29 11:10:45.194257"", ""timezone_type"": 3, ""timezone"": ""Asia/Taipei""}, ""縣市代碼"": ""63000"", ""專用標識編號"": ""臺北市旅館303號"", ""旅館名稱"": ""天閣酒店台北信義"", ""電話或手機號碼"": ""(02)25288000"", ""營業地址"": ""110臺北市信義區忠孝東路五段297號1-6樓"", ""客房最低定價"": ""15000"", ""客房最高定價"": ""15000"", ""房間數"": ""105""}"
天閣酒店台北劍潭,111臺北市士林區基河路16之6號1樓至12樓,25.0824890,121.5241640,臺北市旅館676號,,一般旅館,"{""_id"": 459, ""_importdate"": {""date"": ""2025-12-29 11:10:45.516489"", ""timezone_type"": 3, ""timezone"": ""Asia/Taipei""}, ""縣市代碼"": ""63000"", ""專用標識編號"": ""臺北市旅館676號"", ""旅館名稱"": ""天閣酒店台北劍潭"", ""電話或手機號碼"": ""(02)28862999"", ""營業地址"": ""111臺北市士林區基河路16之6號1樓至12樓"", ""客房最低定價"": ""10500"", ""客房最高定價"": ""30000"", ""房間數"": ""72""}"
天閣酒店台北士林,111臺北市士林區基河路16-8號1樓至11樓,25.0824890,121.5241640,臺北市旅館720號,,一般旅館,"{""_id"": 493, ""_importdate"": {""date"": ""2025-12-29 11:10:45.551899"", ""timezone_type"": 3, ""timezone"": ""Asia/Taipei""}, ""縣市代碼"": ""63000"", ""專用標識編號"": ""臺北市旅館720號"", ""旅館名稱"": ""天閣酒店台北士林"", ""電話或手機號碼"": ""(02)28866888"", ""營業地址"": ""111臺北市士林區基河路16-8號1樓至11樓"", ""客房最低定價"": ""20000"", ""客房最高定價"": ""20000"", ""房間數"": ""51""}"
天閣酒店台北復興,105臺北市松山區復興北路147號1至12樓,25.0537230,121.5442920,臺北市旅館489號,,一般旅館,"{""_id"": 321, ""_importdate"": {""date"": ""2025-12-29 11:10:45.365180"", ""timezone_type"": 3, ""timezone"": ""Asia/Taipei""}, ""縣市代碼"": ""63000"", ""專用標識編號"": ""臺北市旅館489號"", ""旅館名稱"": ""天閣酒店台北復興"", ""電話或手機號碼"": ""(02)87128000"", ""營業地址"": ""105臺北市松山區復興北路147號1至12樓"", ""客房最低定價"": ""10200"", ""客房最高定價"": ""30000"", ""房間數"": ""70""}"
天雲旅棧台北中山,"104臺北市中山區中山北路一段83巷7,7之1號至7之18號",,,臺北市旅館704號,,一般旅館,"{""_id"": 481, ""_importdate"": {""date"": ""2025-12-29 11:10:45.539692"", ""timezone_type"": 3, ""timezone"": ""Asia/Taipei""}, ""縣市代碼"": ""63000"", ""專用標識編號"": ""臺北市旅館704號"", ""旅館名稱"": ""天雲旅棧台北中山"", ""電話或手機號碼"": ""(02)25216666"", ""營業地址"": ""104臺北市中山區中山北路一段83巷7,7之1號至7之18號"", ""客房最低定價"": ""7000"", ""客房最高定價"": ""9800"", ""房間數"": ""56""}"
天雲旅棧台北基河,111臺北市士林區基河路18號,25.0830080,121.5242370,臺北市旅館541號,,一般旅館,"{""_id"": 354, ""_importdate"": {""date"": ""2025-12-29 11:10:45.403238"", ""timezone_type"": 3, ""timezone"": ""Asia/Taipei""}, ""縣市代碼"": ""63000"", ""專用標識編號"": ""臺北市旅館541號"", ""旅館名稱"": ""天雲旅棧台北基河"", ""電話或手機號碼"": ""(02)28856666"", ""營業地址"": ""111臺北市士林區基河路18號"", ""客房最低定價"": ""20000"", ""客房最高定價"": ""20000"", ""房間數"": ""31""}"
天雲旅棧台北開封,100臺北市中正區開封街1段33號1至8樓,25.0461130,121.5119530,臺北市旅館801號,,一般旅館,"{""_id"": 569, ""_importdate"": {""date"": ""2025-12-29 11:10:45.644035"", ""timezone_type"": 3, ""timezone"": ""Asia/Taipei""}, ""縣市代碼"": ""63000"", ""專用標識編號"": ""臺北市旅館801號"", ""旅館名稱"": ""天雲旅棧台北開封"", ""電話或手機號碼"": ""(02)23811111"", ""營業地址"": ""100臺北市中正區開封街1段33號1至8樓"", ""客房最低定價"": ""8000"", ""客房最高定價"": ""18000"", ""房間數"": ""158""}"
太子文旅-修齊館,100臺北市中正區思源街16、16之1號,25.0136890,121.5305040,臺北市旅館806號,,一般旅館,"{""_id"": 574, ""_importdate"": {""date"": ""2025-12-29 11:10:45.649262"", ""timezone_type"": 3, ""timezone"": ""Asia/Taipei""}, ""縣市代碼"": ""63000"", ""專用標識編號"": ""臺北市旅館806號"", ""旅館名稱"": ""太子文旅-修齊館"", ""電話或手機號碼"": ""(02)23631066"", ""營業地址"": ""100臺北市中正區思源街16、16之1號"", ""客房最低定價"": ""6600"", ""客房最高定價"": ""17600"", ""房間數"": ""95""}"
太平洋商旅,"110臺北市信義區光復南路495號11樓之2及13,16,17,19樓",,,臺北市旅館290號,,一般旅館,"{""_id"": 174, ""_importdate"": {""date"": ""2025-12-29 11:10:45.182399"", ""timezone_type"": 3, ""timezone"": ""Asia/Taipei""}, ""縣市代碼"": ""63000"", ""專用標識編號"": ""臺北市旅館290號"", ""旅館名稱"": ""太平洋商旅"", ""電話或手機號碼"": ""(02)87808000"", ""營業地址"": ""110臺北市信義區光復南路495號11樓之2及13,16,17,19樓"", ""客房最低定價"": ""18000"", ""客房最高定價"": ""30000"", ""房間數"": ""48""}"
太豪大飯店,105臺北市松山區興安街137號1-6樓,25.0562060,121.5447050,臺北市旅館307號,,一般旅館,"{""_id"": 189, ""_importdate"": {""date"": ""2025-12-29 11:10:45.197356"", ""timezone_type"": 3, ""timezone"": ""Asia/Taipei""}, ""縣市代碼"": ""63000"", ""專用標識編號"": ""臺北市旅館307號"", ""旅館名稱"": ""太豪大飯店"", ""電話或手機號碼"": ""(02)27195152"", ""營業地址"": ""105臺北市松山區興安街137號1-6樓"", ""客房最低定價"": ""8000"", ""客房最高定價"": ""10000"", ""房間數"": ""38""}"
夾腳拖的家長安122,103臺北市大同區長安西路 122 號、124號 1至4樓,25.0505490,121.5181220,臺北市旅館585號,,一般旅館,"{""_id"": 389, ""_importdate"": {""date"": ""2025-12-29 11:10:45.442097"", ""timezone_type"": 3, ""timezone"": ""Asia/Taipei""}, ""縣市代碼"": ""63000"", ""專用標識編號"": ""臺北市旅館585號"", ""旅館名稱"": ""夾腳拖的家長安122"", ""電話或手機號碼"": ""(02)25585050"", ""營業地址"": ""103臺北市大同區長安西路 122 號、124號 1至4樓"", ""客房最低定價"": ""1000"", ""客房最高定價"": ""5000"", ""房間數"": ""31""}"
姆提文創旅店,106臺北市大安區信義路三段147巷5弄4號1樓,25.0338420,121.5423140,臺北市旅館546號,,一般旅館,"{""_id"": 358, ""_importdate"": {""date"": ""2025-12-29 11:10:45.408754"", ""timezone_type"": 3, ""timezone"": ""Asia/Taipei""}, ""縣市代碼"": ""63000"", ""專用標識編號"": ""臺北市旅館546號"", ""旅館名稱"": ""姆提文創旅店"", ""電話或手機號碼"": ""(02)23897563"", ""營業地址"": ""106臺北市大安區信義路三段147巷5弄4號1樓"", ""客房最低定價"": ""2380"", ""客房最高定價"": ""16000"", ""房間數"": ""11""}"
安庭澔思青年旅舍,103臺北市大同區承德路一段66號12樓,25.0520490,121.5171460,臺北市旅館465號,,一般旅館,"{""_id"": 302, ""_importdate"": {""date"": ""2025-12-29 11:10:45.339808"", ""timezone_type"": 3, ""timezone"": ""Asia/Taipei""}, ""縣市代碼"": ""63000"", ""專用標識編號"": ""臺北市旅館465號"", ""旅館名稱"": ""安庭澔思青年旅舍"", ""電話或手機號碼"": ""(02)25526176"", ""營業地址"": ""103臺北市大同區承德路一段66號12樓"", ""客房最低定價"": ""2500"", ""客房最高定價"": ""8000"", ""房間數"": ""4""}"
安捷國際公寓酒店,103臺北市大同區市民大道1段201號15樓、15樓之1至之3、之5至之10,,,臺北市旅館757號,,一般旅館,"{""_id"": 525, ""_importdate"": {""date"": ""2025-12-29 11:10:45.586171"", ""timezone_type"": 3, ""timezone"": ""Asia/Taipei""}, ""縣市代碼"": ""63000"", ""專用標識編號"": ""臺北市旅館757號"", ""旅館名稱"": ""安捷國際公寓酒店"", ""電話或手機號碼"": ""(02)25592900"", ""營業地址"": ""103臺北市大同區市民大道1段201號15樓、15樓之1至之3、之5至之10"", ""客房最低定價"": ""9800"", ""客房最高定價"": ""15800"", ""房間數"": ""9""}"
宏洲旅社,108臺北市萬華區漢中街4號1-7樓,25.0459240,121.5078210,臺北市旅館154號,,一般旅館,"{""_id"": 94, ""_importdate"": {""date"": ""2025-12-29 11:10:45.082964"", ""timezone_type"": 3, ""timezone"": ""Asia/Taipei""}, ""縣市代碼"": ""63000"", ""專用標識編號"": ""臺北市旅館154號"", ""旅館名稱"": ""宏洲旅社"", ""電話或手機號碼"": ""(02)23319841"", ""營業地址"": ""108臺北市萬華區漢中街4號1-7樓"", ""客房最低定價"": ""12000"", ""客房最高定價"": ""12000"", ""房間數"": ""28""}"
宏都金殿大飯店,106臺北市大安區安和路2段100號2-9樓,25.0328780,121.5522430,臺北市旅館324號,,一般旅館,"{""_id"": 202, ""_importdate"": {""date"": ""2025-12-29 11:10:45.213341"", ""timezone_type"": 3, ""timezone"": ""Asia/Taipei""}, ""縣市代碼"": ""63000"", ""專用標識編號"": ""臺北市旅館324號"", ""旅館名稱"": ""宏都金殿大飯店"", ""電話或手機號碼"": ""(02)27556599"", ""營業地址"": ""106臺北市大安區安和路2段100號2-9樓"", ""客房最低定價"": ""5000"", ""客房最高定價"": ""16000"", ""房間數"": ""32""}"
宜家居商旅,112臺北市北投區中和街40號3樓及3樓之1,25.1463420,121.4932350,臺北市旅館661號,,一般旅館,"{""_id"": 446, ""_importdate"": {""date"": ""2025-12-29 11:10:45.501678"", ""timezone_type"": 3, ""timezone"": ""Asia/Taipei""}, ""縣市代碼"": ""63000"", ""專用標識編號"": ""臺北市旅館661號"", ""旅館名稱"": ""宜家居商旅"", ""電話或手機號碼"": ""(02)28910502"", ""營業地址"": ""112臺北市北投區中和街40號3樓及3樓之1"", ""客房最低定價"": ""4900"", ""客房最高定價"": ""4900"", ""房間數"": ""39""}"
宜津美侖大飯店,"106臺北市大安區復興南路1段315號,317號,317號2樓",,,臺北市旅館340號,,一般旅館,"{""_id"": 210, ""_importdate"": {""date"": ""2025-12-29 11:10:45.223821"", ""timezone_type"": 3, ""timezone"": ""Asia/Taipei""}, ""縣市代碼"": ""63000"", ""專用標識編號"": ""臺北市旅館340號"", ""旅館名稱"": ""宜津美侖大飯店"", ""電話或手機號碼"": ""(02)55793888"", ""營業地址"": ""106臺北市大安區復興南路1段315號,317號,317號2樓"", ""客房最低定價"": ""14000"", ""客房最高定價"": ""56000"", ""房間數"": ""143""}"
客來思樂行旅,"106臺北市大安區羅斯福路3段241號4-6樓,4-6樓之1",,,臺北市旅館081號,,一般旅館,"{""_id"": 43, ""_importdate"": {""date"": ""2025-12-29 11:10:45.016794"", ""timezone_type"": 3, ""timezone"": ""Asia/Taipei""}, ""縣市代碼"": ""63000"", ""專用標識編號"": ""臺北市旅館081號"", ""旅館名稱"": ""客來思樂行旅"", ""電話或手機號碼"": ""(02)23626555"", ""營業地址"": ""106臺北市大安區羅斯福路3段241號4-6樓,4-6樓之1"", ""客房最低定價"": ""1280"", ""客房最高定價"": ""5000"", ""房間數"": ""20""}"
客憩旅宿,100臺北市中正區重慶南路一段63號2樓,25.0444470,121.5133410,臺北市旅館782號,,一般旅館,"{""_id"": 550, ""_importdate"": {""date"": ""2025-12-29 11:10:45.613140"", ""timezone_type"": 3, ""timezone"": ""Asia/Taipei""}, ""縣市代碼"": ""63000"", ""專用標識編號"": ""臺北市旅館782號"", ""旅館名稱"": ""客憩旅宿"", ""電話或手機號碼"": ""(02)23116118、 0975-721686"", ""營業地址"": ""100臺北市中正區重慶南路一段63號2樓"", ""客房最低定價"": ""1000"", ""客房最高定價"": ""8000"", ""房間數"": ""11""}"
家美瑞品 台北,100臺北市中正區北平東路12號2至9樓,25.0460410,121.5244690,臺北市旅館355號,,一般旅館,"{""_id"": 219, ""_importdate"": {""date"": ""2025-12-29 11:10:45.235658"", ""timezone_type"": 3, ""timezone"": ""Asia/Taipei""}, ""縣市代碼"": ""63000"", ""專用標識編號"": ""臺北市旅館355號"", ""旅館名稱"": ""家美瑞品 台北"", ""電話或手機號碼"": ""(02)23581234"", ""營業地址"": ""100臺北市中正區北平東路12號2至9樓"", ""客房最低定價"": ""7500"", ""客房最高定價"": ""24000"", ""房間數"": ""68""}"
家賓大旅社,116臺北市文山區景文街42號6-7樓,24.9916800,121.5412310,臺北市旅館092號,,一般旅館,"{""_id"": 49, ""_importdate"": {""date"": ""2025-12-29 11:10:45.024710"", ""timezone_type"": 3, ""timezone"": ""Asia/Taipei""}, ""縣市代碼"": ""63000"", ""專用標識編號"": ""臺北市旅館092號"", ""旅館名稱"": ""家賓大旅社"", ""電話或手機號碼"": ""(02)29325915"", ""營業地址"": ""116臺北市文山區景文街42號6-7樓"", ""客房最低定價"": ""4000"", ""客房最高定價"": ""6000"", ""房間數"": ""32""}"
密都大飯店,104臺北市中山區長春路246號2-9樓,25.0546000,121.5383750,臺北市旅館254號,,一般旅館,"{""_id"": 151, ""_importdate"": {""date"": ""2025-12-29 11:10:45.154129"", ""timezone_type"": 3, ""timezone"": ""Asia/Taipei""}, ""縣市代碼"": ""63000"", ""專用標識編號"": ""臺北市旅館254號"", ""旅館名稱"": ""密都大飯店"", ""電話或手機號碼"": ""(02)25068866"", ""營業地址"": ""104臺北市中山區長春路246號2-9樓"", ""客房最低定價"": ""10800"", ""客房最高定價"": ""16800"", ""房間數"": ""48""}"
富園國際商務飯店,108臺北市萬華區中華路一段178號,25.0391040,121.5069860,臺北市旅館288號,,一般旅館,"{""_id"": 173, ""_importdate"": {""date"": ""2025-12-29 11:10:45.181374"", ""timezone_type"": 3, ""timezone"": ""Asia/Taipei""}, ""縣市代碼"": ""63000"", ""專用標識編號"": ""臺北市旅館288號"", ""旅館名稱"": ""富園國際商務飯店"", ""電話或手機號碼"": ""(02)23887890"", ""營業地址"": ""108臺北市萬華區中華路一段178號"", ""客房最低定價"": ""4800"", ""客房最高定價"": ""10000"", ""房間數"": ""45""}"
富玉莊旅社,"111臺北市士林區福港街149巷15弄8,10號2-3樓",25.0876300,121.5190930,臺北市旅館109號,,一般旅館,"{""_id"": 63, ""_importdate"": {""date"": ""2025-12-29 11:10:45.043188"", ""timezone_type"": 3, ""timezone"": ""Asia/Taipei""}, ""縣市代碼"": ""63000"", ""專用標識編號"": ""臺北市旅館109號"", ""旅館名稱"": ""富玉莊旅社"", ""電話或手機號碼"": ""(02)28822308"", ""營業地址"": ""111臺北市士林區福港街149巷15弄8,10號2-3樓"", ""客房最低定價"": ""1900"", ""客房最高定價"": ""2500"", ""房間數"": ""20""}"
富粧商務旅店,"108臺北市萬華區康定路6,8號2-5樓",25.0369850,121.5012160,臺北市旅館048號,,一般旅館,"{""_id"": 25, ""_importdate"": {""date"": ""2025-12-29 11:10:44.992656"", ""timezone_type"": 3, ""timezone"": ""Asia/Taipei""}, ""縣市代碼"": ""63000"", ""專用標識編號"": ""臺北市旅館048號"", ""旅館名稱"": ""富粧商務旅店"", ""電話或手機號碼"": ""(02)23711247、 0968-321777"", ""營業地址"": ""108臺北市萬華區康定路6,8號2-5樓"", ""客房最低定價"": ""1680"", ""客房最高定價"": ""8880"", ""房間數"": ""28""}"
富裕自由商旅,106臺北市大安區忠孝東路四段235號2樓、2樓之1、3樓、3樓之1、4樓之1、5樓之1、6樓之1、7樓、7樓之1及9樓,,,臺北市旅館421號,,一般旅館,"{""_id"": 266, ""_importdate"": {""date"": ""2025-12-29 11:10:45.293104"", ""timezone_type"": 3, ""timezone"": ""Asia/Taipei""}, ""縣市代碼"": ""63000"", ""專用標識編號"": ""臺北市旅館421號"", ""旅館名稱"": ""富裕自由商旅"", ""電話或手機號碼"": ""(02)27413147"", ""營業地址"": ""106臺北市大安區忠孝東路四段235號2樓、2樓之1、3樓、3樓之1、4樓之1、5樓之1、6樓之1、7樓、7樓之1及9樓"", ""客房最低定價"": ""10000"", ""客房最高定價"": ""25000"", ""房間數"": ""67""}"
富裕自由旅店林森館,104臺北市中山區林森北路85巷23號1至2樓,25.0496360,121.5256960,臺北市旅館632號,,一般旅館,"{""_id"": 423, ""_importdate"": {""date"": ""2025-12-29 11:10:45.478122"", ""timezone_type"": 3, ""timezone"": ""Asia/Taipei""}, ""縣市代碼"": ""63000"", ""專用標識編號"": ""臺北市旅館632號"", ""旅館名稱"": ""富裕自由旅店林森館"", ""電話或手機號碼"": ""(02)25671333"", ""營業地址"": ""104臺北市中山區林森北路85巷23號1至2樓"", ""客房最低定價"": ""10000"", ""客房最高定價"": ""15000"", ""房間數"": ""11""}"
富逸旅趣-北車開封館,100臺北市中正區開封街1段41號2-9樓,25.0461130,121.5119530,臺北市旅館325號,,一般旅館,"{""_id"": 203, ""_importdate"": {""date"": ""2025-12-29 11:10:45.214709"", ""timezone_type"": 3, ""timezone"": ""Asia/Taipei""}, ""縣市代碼"": ""63000"", ""專用標識編號"": ""臺北市旅館325號"", ""旅館名稱"": ""富逸旅趣-北車開封館"", ""電話或手機號碼"": ""(02)23881788"", ""營業地址"": ""100臺北市中正區開封街1段41號2-9樓"", ""客房最低定價"": ""3800"", ""客房最高定價"": ""25000"", ""房間數"": ""42""}"
富順大飯店,103臺北市大同區南京西路177號,25.0540480,121.5126430,臺北市旅館243號,,一般旅館,"{""_id"": 143, ""_importdate"": {""date"": ""2025-12-29 11:10:45.142477"", ""timezone_type"": 3, ""timezone"": ""Asia/Taipei""}, ""縣市代碼"": ""63000"", ""專用標識編號"": ""臺北市旅館243號"", ""旅館名稱"": ""富順大飯店"", ""電話或手機號碼"": ""(02)25551016"", ""營業地址"": ""103臺北市大同區南京西路177號"", ""客房最低定價"": ""1600"", ""客房最高定價"": ""3900"", ""房間數"": ""88""}"
富驛時尚酒店,104臺北市中山區南京東路三段131號10樓至13樓,25.0521230,121.5406850,臺北市旅館385號,,一般旅館,"{""_id"": 240, ""_importdate"": {""date"": ""2025-12-29 11:10:45.263225"", ""timezone_type"": 3, ""timezone"": ""Asia/Taipei""}, ""縣市代碼"": ""63000"", ""專用標識編號"": ""臺北市旅館385號"", ""旅館名稱"": ""富驛時尚酒店　"", ""電話或手機號碼"": ""(02)55720777"", ""營業地址"": ""104臺北市中山區南京東路三段131號10樓至13樓"", ""客房最低定價"": ""7590"", ""客房最高定價"": ""21620"", ""房間數"": ""180""}"
寒居酒店 Humble Boutique Hotel,104臺北市中山區松江路116號1樓至9樓,25.0516740,121.5327900,臺北市旅館752號,,一般旅館,"{""_id"": 520, ""_importdate"": {""date"": ""2025-12-29 11:10:45.580947"", ""timezone_type"": 3, ""timezone"": ""Asia/Taipei""}, ""縣市代碼"": ""63000"", ""專用標識編號"": ""臺北市旅館752號"", ""旅館名稱"": ""寒居酒店 Humble Boutique Hotel"", ""電話或手機號碼"": ""(02)66008000"", ""營業地址"": ""104臺北市中山區松江路116號1樓至9樓"", ""客房最低定價"": ""15000"", ""客房最高定價"": ""38000"", ""房間數"": ""111""}"
寧夏2號旅店,103臺北市大同區寧夏路2號,25.0543900,121.5147030,臺北市旅館554號,,一般旅館,"{""_id"": 363, ""_importdate"": {""date"": ""2025-12-29 11:10:45.414884"", ""timezone_type"": 3, ""timezone"": ""Asia/Taipei""}, ""縣市代碼"": ""63000"", ""專用標識編號"": ""臺北市旅館554號"", ""旅館名稱"": ""寧夏2號旅店"", ""電話或手機號碼"": ""(02)25507619"", ""營業地址"": ""103臺北市大同區寧夏路2號"", ""客房最低定價"": ""14880"", ""客房最高定價"": ""16880"", ""房間數"": ""19""}"
寶格利時尚旅館,108臺北市萬華區中華路一段168號1-15樓,25.0412100,121.5075870,臺北市旅館315號,,一般旅館,"{""_id"": 195, ""_importdate"": {""date"": ""2025-12-29 11:10:45.204401"", ""timezone_type"": 3, ""timezone"": ""Asia/Taipei""}, ""縣市代碼"": ""63000"", ""專用標識編號"": ""臺北市旅館315號"", ""旅館名稱"": ""寶格利時尚旅館"", ""電話或手機號碼"": ""(02)23821314"", ""營業地址"": ""108臺北市萬華區中華路一段168號1-15樓"", ""客房最低定價"": ""10800"", ""客房最高定價"": ""11800"", ""房間數"": ""46""}"
小公館人文旅舍,"105臺北市松山區南京東路五段399號5,8,14樓",25.0514950,121.5696360,臺北市旅館495號,,一般旅館,"{""_id"": 325, ""_importdate"": {""date"": ""2025-12-29 11:10:45.370586"", ""timezone_type"": 3, ""timezone"": ""Asia/Taipei""}, ""縣市代碼"": ""63000"", ""專用標識編號"": ""臺北市旅館495號"", ""旅館名稱"": ""小公館人文旅舍"", ""電話或手機號碼"": ""(02)27690200"", ""營業地址"": ""105臺北市松山區南京東路五段399號5,8,14樓"", ""客房最低定價"": ""6000"", ""客房最高定價"": ""25200"", ""房間數"": ""20""}"
小王子甜蜜旅店,108臺北市萬華區漢中街42號9樓,25.0442260,121.5073430,臺北市旅館329號,,一般旅館,"{""_id"": 206, ""_importdate"": {""date"": ""2025-12-29 11:10:45.218821"", ""timezone_type"": 3, ""timezone"": ""Asia/Taipei""}, ""縣市代碼"": ""63000"", ""專用標識編號"": ""臺北市旅館329號"", ""旅館名稱"": ""小王子甜蜜旅店"", ""電話或手機號碼"": ""(02)23820225"", ""營業地址"": ""108臺北市萬華區漢中街42號9樓"", ""客房最低定價"": ""10000"", ""客房最高定價"": ""20000"", ""房間數"": ""9""}"
小角落旅店,103臺北市大同區民族西路33號(1至4樓),25.0695290,121.5102860,臺北市旅館694號,,一般旅館,"{""_id"": 473, ""_importdate"": {""date"": ""2025-12-29 11:10:45.531384"", ""timezone_type"": 3, ""timezone"": ""Asia/Taipei""}, ""縣市代碼"": ""63000"", ""專用標識編號"": ""臺北市旅館694號"", ""旅館名稱"": ""小角落旅店"", ""電話或手機號碼"": ""(02)25991699"", ""營業地址"": ""103臺北市大同區民族西路33號(1至4樓)"", ""客房最低定價"": ""600"", ""客房最高定價"": ""48000"", ""房間數"": ""5""}"
小雅旅店,105臺北市松山區八德路四段616號5樓,25.0498200,121.5736030,臺北市旅館035號,,一般旅館,"{""_id"": 21, ""_importdate"": {""date"": ""2025-12-29 11:10:44.988807"", ""timezone_type"": 3, ""timezone"": ""Asia/Taipei""}, ""縣市代碼"": ""63000"", ""專用標識編號"": ""臺北市旅館035號"", ""旅館名稱"": ""小雅旅店"", ""電話或手機號碼"": ""(02)27631122"", ""營業地址"": ""105臺北市松山區八德路四段616號5樓"", ""客房最低定價"": ""1100"", ""客房最高定價"": ""6400"", ""房間數"": ""17""}"
尚印旅店,104臺北市中山區中山北路二段71號8樓,25.0570140,121.5253800,臺北市旅館407號,,一般旅館,"{""_id"": 253, ""_importdate"": {""date"": ""2025-12-29 11:10:45.279902"", ""timezone_type"": 3, ""timezone"": ""Asia/Taipei""}, ""縣市代碼"": ""63000"", ""專用標識編號"": ""臺北市旅館407號"", ""旅館名稱"": ""尚印旅店"", ""電話或手機號碼"": ""(02)25682270"", ""營業地址"": ""104臺北市中山區中山北路二段71號8樓"", ""客房最低定價"": ""8800"", ""客房最高定價"": ""11800"", ""房間數"": ""23""}"
尚印旅店-二?,104臺北市中山區中山北路二段71號10樓,25.0570140,121.5253800,臺北市旅館437號,,一般旅館,"{""_id"": 278, ""_importdate"": {""date"": ""2025-12-29 11:10:45.307056"", ""timezone_type"": 3, ""timezone"": ""Asia/Taipei""}, ""縣市代碼"": ""63000"", ""專用標識編號"": ""臺北市旅館437號"", ""旅館名稱"": ""尚印旅店-二?"", ""電話或手機號碼"": ""(02)25682810"", ""營業地址"": ""104臺北市中山區中山北路二段71號10樓"", ""客房最低定價"": ""8800"", ""客房最高定價"": ""11800"", ""房間數"": ""20""}"
尚美精旅,104臺北市中山區民生西路16號4樓,25.0585050,121.5213670,臺北市旅館612號,,一般旅館,"{""_id"": 406, ""_importdate"": {""date"": ""2025-12-29 11:10:45.460371"", ""timezone_type"": 3, ""timezone"": ""Asia/Taipei""}, ""縣市代碼"": ""63000"", ""專用標識編號"": ""臺北市旅館612號"", ""旅館名稱"": ""尚美精旅"", ""電話或手機號碼"": ""(02)25230188"", ""營業地址"": ""104臺北市中山區民生西路16號4樓"", ""客房最低定價"": ""15000"", ""客房最高定價"": ""22000"", ""房間數"": ""14""}"
山樂溫泉,112臺北市北投區泉源路1巷17號1-2樓,25.1405400,121.5061880,臺北市旅館258號,,一般旅館,"{""_id"": 154, ""_importdate"": {""date"": ""2025-12-29 11:10:45.158103"", ""timezone_type"": 3, ""timezone"": ""Asia/Taipei""}, ""縣市代碼"": ""63000"", ""專用標識編號"": ""臺北市旅館258號"", ""旅館名稱"": ""山樂溫泉"", ""電話或手機號碼"": ""(02)28913388"", ""營業地址"": ""112臺北市北投區泉源路1巷17號1-2樓"", ""客房最低定價"": ""4600"", ""客房最高定價"": ""15000"", ""房間數"": ""9""}"
山水樂會館,112臺北市北投區中和街20巷6號,25.1380340,121.5037440,臺北市旅館259號,,一般旅館,"{""_id"": 155, ""_importdate"": {""date"": ""2025-12-29 11:10:45.159418"", ""timezone_type"": 3, ""timezone"": ""Asia/Taipei""}, ""縣市代碼"": ""63000"", ""專用標識編號"": ""臺北市旅館259號"", ""旅館名稱"": ""山水樂會館"", ""電話或手機號碼"": ""(02)28922665"", ""營業地址"": ""112臺北市北投區中和街20巷6號"", ""客房最低定價"": ""8600"", ""客房最高定價"": ""15000"", ""房間數"": ""18""}"
峻美精旅,104臺北市中山區長春路62號6樓,25.0549240,121.5264250,臺北市旅館540號,,一般旅館,"{""_id"": 353, ""_importdate"": {""date"": ""2025-12-29 11:10:45.401435"", ""timezone_type"": 3, ""timezone"": ""Asia/Taipei""}, ""縣市代碼"": ""63000"", ""專用標識編號"": ""臺北市旅館540號"", ""旅館名稱"": ""峻美精旅"", ""電話或手機號碼"": ""(02)25312338"", ""營業地址"": ""104臺北市中山區長春路62號6樓 "", ""客房最低定價"": ""13000"", ""客房最高定價"": ""22000"", ""房間數"": ""15""}"
希爾商旅台北館,104臺北市中山區南京東路二段11號4至5樓,25.0513100,121.5338570,臺北市旅館762號,,一般旅館,"{""_id"": 530, ""_importdate"": {""date"": ""2025-12-29 11:10:45.591492"", ""timezone_type"": 3, ""timezone"": ""Asia/Taipei""}, ""縣市代碼"": ""63000"", ""專用標識編號"": ""臺北市旅館762號"", ""旅館名稱"": ""希爾商旅台北館"", ""電話或手機號碼"": ""(02)25678858"", ""營業地址"": ""104臺北市中山區南京東路二段11號4至5樓"", ""客房最低定價"": ""2000"", ""客房最高定價"": ""8000"", ""房間數"": ""32""}"
帛堯初見輕旅,108臺北市萬華區忠孝西路2段38號,25.0478840,121.5083120,臺北市旅館580號,,一般旅館,"{""_id"": 384, ""_importdate"": {""date"": ""2025-12-29 11:10:45.436399"", ""timezone_type"": 3, ""timezone"": ""Asia/Taipei""}, ""縣市代碼"": ""63000"", ""專用標識編號"": ""臺北市旅館580號"", ""旅館名稱"": ""帛堯初見輕旅"", ""電話或手機號碼"": ""(02)23886813"", ""營業地址"": ""108臺北市萬華區忠孝西路2段38號"", ""客房最低定價"": ""1600"", ""客房最高定價"": ""8000"", ""房間數"": ""4""}"
帝華旅社,108臺北市萬華區桂林路89號11-12樓,25.0385100,121.5015280,臺北市旅館183號,,一般旅館,"{""_id"": 110, ""_importdate"": {""date"": ""2025-12-29 11:10:45.099186"", ""timezone_type"": 3, ""timezone"": ""Asia/Taipei""}, ""縣市代碼"": ""63000"", ""專用標識編號"": ""臺北市旅館183號"", ""旅館名稱"": ""帝華旅社"", ""電話或手機號碼"": ""(02)23118411"", ""營業地址"": ""108臺北市萬華區桂林路89號11-12樓"", ""客房最低定價"": ""1680"", ""客房最高定價"": ""3080"", ""房間數"": ""32""}"
帥客旅店,100臺北市中正區羅斯福路一段90巷2號1-5樓,25.0301110,121.5196450,臺北市旅館079號,,一般旅館,"{""_id"": 42, ""_importdate"": {""date"": ""2025-12-29 11:10:45.015420"", ""timezone_type"": 3, ""timezone"": ""Asia/Taipei""}, ""縣市代碼"": ""63000"", ""專用標識編號"": ""臺北市旅館079號"", ""旅館名稱"": ""帥客旅店"", ""電話或手機號碼"": ""(02)23223887"", ""營業地址"": ""100臺北市中正區羅斯福路一段90巷2號1-5樓"", ""客房最低定價"": ""1500"", ""客房最高定價"": ""5400"", ""房間數"": ""32""}"
幸福大旅社,108臺北市萬華區內江街55巷26號1-4樓,25.0426280,121.5052730,臺北市旅館144號,,一般旅館,"{""_id"": 87, ""_importdate"": {""date"": ""2025-12-29 11:10:45.075892"", ""timezone_type"": 3, ""timezone"": ""Asia/Taipei""}, ""縣市代碼"": ""63000"", ""專用標識編號"": ""臺北市旅館144號"", ""旅館名稱"": ""幸福大旅社"", ""電話或手機號碼"": ""(02)23716808"", ""營業地址"": ""108臺北市萬華區內江街55巷26號1-4樓"", ""客房最低定價"": ""3500"", ""客房最高定價"": ""4500"", ""房間數"": ""22""}"
幸福蘋果旅店,108臺北市萬華區峨眉街109、109-2號(1樓部分、2至7樓),,,臺北市旅館683號,,一般旅館,"{""_id"": 465, ""_importdate"": {""date"": ""2025-12-29 11:10:45.523265"", ""timezone_type"": 3, ""timezone"": ""Asia/Taipei""}, ""縣市代碼"": ""63000"", ""專用標識編號"": ""臺北市旅館683號"", ""旅館名稱"": ""幸福蘋果旅店"", ""電話或手機號碼"": ""(02)23117877"", ""營業地址"": ""108臺北市萬華區峨眉街109、109-2號(1樓部分、2至7樓)"", ""客房最低定價"": ""4000"", ""客房最高定價"": ""8000"", ""房間數"": ""49""}"
建山大旅社,103臺北市大同區歸綏街182號2-4樓,25.0580920,121.5122260,臺北市旅館197號,,一般旅館,"{""_id"": 118, ""_importdate"": {""date"": ""2025-12-29 11:10:45.109252"", ""timezone_type"": 3, ""timezone"": ""Asia/Taipei""}, ""縣市代碼"": ""63000"", ""專用標識編號"": ""臺北市旅館197號"", ""旅館名稱"": ""建山大旅社"", ""電話或手機號碼"": ""(02)25520680"", ""營業地址"": ""103臺北市大同區歸綏街182號2-4樓"", ""客房最低定價"": ""3000"", ""客房最高定價"": ""6000"", ""房間數"": ""13""}"
復新文旅,"104臺北市中山區復興北路282號3,6樓",25.0587850,121.5439280,臺北市旅館453號,,一般旅館,"{""_id"": 293, ""_importdate"": {""date"": ""2025-12-29 11:10:45.327763"", ""timezone_type"": 3, ""timezone"": ""Asia/Taipei""}, ""縣市代碼"": ""63000"", ""專用標識編號"": ""臺北市旅館453號"", ""旅館名稱"": ""復新文旅 "", ""電話或手機號碼"": ""(02)77337959、 0933-336618"", ""營業地址"": ""104臺北市中山區復興北路282號3,6樓 "", ""客房最低定價"": ""5000"", ""客房最高定價"": ""6500"", ""房間數"": ""19""}"
思泊客,"110臺北市信義區信義路五段16號B1,18號B1,B1-1",25.0280990,121.5690530,臺北市旅館478號,,一般旅館,"{""_id"": 312, ""_importdate"": {""date"": ""2025-12-29 11:10:45.353368"", ""timezone_type"": 3, ""timezone"": ""Asia/Taipei""}, ""縣市代碼"": ""63000"", ""專用標識編號"": ""臺北市旅館478號"", ""旅館名稱"": ""思泊客"", ""電話或手機號碼"": ""(02)27230999"", ""營業地址"": ""110臺北市信義區信義路五段16號B1,18號B1,B1-1"", ""客房最低定價"": ""11800"", ""客房最高定價"": ""11800"", ""房間數"": ""45""}"
怡品商旅,106臺北市大安區忠孝東路四段87號13﹑14樓,25.0381320,121.5529410,臺北市旅館545號,,一般旅館,"{""_id"": 357, ""_importdate"": {""date"": ""2025-12-29 11:10:45.407371"", ""timezone_type"": 3, ""timezone"": ""Asia/Taipei""}, ""縣市代碼"": ""63000"", ""專用標識編號"": ""臺北市旅館545號"", ""旅館名稱"": ""怡品商旅"", ""電話或手機號碼"": ""(02)27766136"", ""營業地址"": ""106臺北市大安區忠孝東路四段87號13﹑14樓"", ""客房最低定價"": ""1000"", ""客房最高定價"": ""25000"", ""房間數"": ""81""}"
悅來旅館,100臺北市中正區中華路一段21號6-7樓,25.0447500,121.5312820,臺北市旅館033號,,一般旅館,"{""_id"": 19, ""_importdate"": {""date"": ""2025-12-29 11:10:44.986639"", ""timezone_type"": 3, ""timezone"": ""Asia/Taipei""}, ""縣市代碼"": ""63000"", ""專用標識編號"": ""臺北市旅館033號"", ""旅館名稱"": ""悅來旅館"", ""電話或手機號碼"": ""(02)23110066"", ""營業地址"": ""100臺北市中正區中華路一段21號6-7樓"", ""客房最低定價"": ""5000"", ""客房最高定價"": ""12000"", ""房間數"": ""26""}"
悅心旅,103臺北市大同區重慶北路1段61號1樓 至3樓,25.0644460,121.5141070,臺北市旅館741號,,一般旅館,"{""_id"": 510, ""_importdate"": {""date"": ""2025-12-29 11:10:45.570423"", ""timezone_type"": 3, ""timezone"": ""Asia/Taipei""}, ""縣市代碼"": ""63000"", ""專用標識編號"": ""臺北市旅館741號"", ""旅館名稱"": ""悅心旅"", ""電話或手機號碼"": ""(02)25591525"", ""營業地址"": ""103臺北市大同區重慶北路1段61號1樓 至3樓"", ""客房最低定價"": ""3800"", ""客房最高定價"": ""6800"", ""房間數"": ""14""}"
悠趣旅店,105臺北市松山區長安東路2段219號12樓,25.0482390,121.5449320,臺北市旅館274號,,一般旅館,"{""_id"": 165, ""_importdate"": {""date"": ""2025-12-29 11:10:45.172398"", ""timezone_type"": 3, ""timezone"": ""Asia/Taipei""}, ""縣市代碼"": ""63000"", ""專用標識編號"": ""臺北市旅館274號"", ""旅館名稱"": ""悠趣旅店"", ""電話或手機號碼"": ""(02)27752277"", ""營業地址"": ""105臺北市松山區長安東路2段219號12樓"", ""客房最低定價"": ""10000"", ""客房最高定價"": ""15000"", ""房間數"": ""27""}"
情覓汽車旅館,104臺北市中山區植福路189號2樓,25.0837450,121.5599100,臺北市旅館291號,,一般旅館,"{""_id"": 175, ""_importdate"": {""date"": ""2025-12-29 11:10:45.183451"", ""timezone_type"": 3, ""timezone"": ""Asia/Taipei""}, ""縣市代碼"": ""63000"", ""專用標識編號"": ""臺北市旅館291號"", ""旅館名稱"": ""情覓汽車旅館 "", ""電話或手機號碼"": ""(02)85020689、 0930-849622"", ""營業地址"": ""104臺北市中山區植福路189號2樓 "", ""客房最低定價"": ""2200"", ""客房最高定價"": ""7200"", ""房間數"": ""16""}"
意寬精品旅館 HOME HOTEL,110臺北市信義區松仁路90號1樓、3至12樓,25.0350650,121.5680230,臺北市旅館378號,,一般旅館,"{""_id"": 237, ""_importdate"": {""date"": ""2025-12-29 11:10:45.259347"", ""timezone_type"": 3, ""timezone"": ""Asia/Taipei""}, ""縣市代碼"": ""63000"", ""專用標識編號"": ""臺北市旅館378號"", ""旅館名稱"": ""意寬精品旅館 HOME HOTEL"", ""電話或手機號碼"": ""(02)87890111"", ""營業地址"": ""110臺北市信義區松仁路90號1樓、3至12樓"", ""客房最低定價"": ""5900"", ""客房最高定價"": ""50000"", ""房間數"": ""121""}"
意芙旅店,103臺北市大同區延平北路二段197號2樓,25.0593280,121.5115510,臺北市旅館430號,,一般旅館,"{""_id"": 272, ""_importdate"": {""date"": ""2025-12-29 11:10:45.299659"", ""timezone_type"": 3, ""timezone"": ""Asia/Taipei""}, ""縣市代碼"": ""63000"", ""專用標識編號"": ""臺北市旅館430號"", ""旅館名稱"": ""意芙旅店"", ""電話或手機號碼"": ""(02)25532133"", ""營業地址"": ""103臺北市大同區延平北路二段197號2樓"", ""客房最低定價"": ""5980"", ""客房最高定價"": ""9900"", ""房間數"": ""20""}"
愛玩客旅店,108臺北市萬華區西寧南路30號12樓,25.0458900,121.5067290,臺北市旅館608號,,一般旅館,"{""_id"": 404, ""_importdate"": {""date"": ""2025-12-29 11:10:45.458117"", ""timezone_type"": 3, ""timezone"": ""Asia/Taipei""}, ""縣市代碼"": ""63000"", ""專用標識編號"": ""臺北市旅館608號"", ""旅館名稱"": ""愛玩客旅店"", ""電話或手機號碼"": ""(02)23316008"", ""營業地址"": ""108臺北市萬華區西寧南路30號12樓"", ""客房最低定價"": ""500"", ""客房最高定價"": ""2000"", ""房間數"": ""1""}"
慕居行旅,110臺北市信義區基隆路二段22號5樓,25.0306210,121.5594240,臺北市旅館002號,,一般旅館,"{""_id"": 2, ""_importdate"": {""date"": ""2025-12-29 11:10:44.962514"", ""timezone_type"": 3, ""timezone"": ""Asia/Taipei""}, ""縣市代碼"": ""63000"", ""專用標識編號"": ""臺北市旅館002號"", ""旅館名稱"": ""慕居行旅"", ""電話或手機號碼"": ""(02)27295828"", ""營業地址"": ""110臺北市信義區基隆路二段22號5樓"", ""客房最低定價"": ""600"", ""客房最高定價"": ""70000"", ""房間數"": ""25""}"
慕誠行旅,110臺北市信義區基隆路二段48號1樓至3樓,25.0315070,121.5584640,臺北市旅館613號,,一般旅館,"{""_id"": 407, ""_importdate"": {""date"": ""2025-12-29 11:10:45.461378"", ""timezone_type"": 3, ""timezone"": ""Asia/Taipei""}, ""縣市代碼"": ""63000"", ""專用標識編號"": ""臺北市旅館613號"", ""旅館名稱"": ""慕誠行旅"", ""電話或手機號碼"": ""(02)27252168"", ""營業地址"": ""110臺北市信義區基隆路二段48號1樓至3樓"", ""客房最低定價"": ""100"", ""客房最高定價"": ""50000"", ""房間數"": ""33""}"
慶爾喜旅館,108臺北市萬華區武昌街二段72號11樓,25.0447310,121.5061750,臺北市旅館738號,,一般旅館,"{""_id"": 509, ""_importdate"": {""date"": ""2025-12-29 11:10:45.569326"", ""timezone_type"": 3, ""timezone"": ""Asia/Taipei""}, ""縣市代碼"": ""63000"", ""專用標識編號"": ""臺北市旅館738號"", ""旅館名稱"": ""慶爾喜旅館"", ""電話或手機號碼"": ""(02)77309920"", ""營業地址"": ""108臺北市萬華區武昌街二段72號11樓"", ""客房最低定價"": ""25000"", ""客房最高定價"": ""25000"", ""房間數"": ""6""}"
慶爾喜旅館西門捷運館,108臺北市萬華區中華路一段152號7樓、11樓及成都路1號7樓、11樓,,,臺北市旅館769號,,一般旅館,"{""_id"": 537, ""_importdate"": {""date"": ""2025-12-29 11:10:45.599633"", ""timezone_type"": 3, ""timezone"": ""Asia/Taipei""}, ""縣市代碼"": ""63000"", ""專用標識編號"": ""臺北市旅館769號"", ""旅館名稱"": ""慶爾喜旅館西門捷運館"", ""電話或手機號碼"": ""(02)77309920"", ""營業地址"": ""108臺北市萬華區中華路一段152號7樓、11樓及成都路1號7樓、11樓"", ""客房最低定價"": ""18000"", ""客房最高定價"": ""35000"", ""房間數"": ""21""}"
慶爾喜旅館長沙一館,108臺北市萬華區長沙街二段11號2樓,25.0407070,121.5069330,臺北市旅館641號,,一般旅館,"{""_id"": 430, ""_importdate"": {""date"": ""2025-12-29 11:10:45.485445"", ""timezone_type"": 3, ""timezone"": ""Asia/Taipei""}, ""縣市代碼"": ""63000"", ""專用標識編號"": ""臺北市旅館641號"", ""旅館名稱"": ""慶爾喜旅館長沙一館"", ""電話或手機號碼"": ""(02)77309920"", ""營業地址"": ""108臺北市萬華區長沙街二段11號2樓"", ""客房最低定價"": ""2200"", ""客房最高定價"": ""3000"", ""房間數"": ""15""}"
慶爾喜旅館長沙二館,108臺北市萬華區長沙街二段11號3樓之1,25.0407070,121.5069330,臺北市旅館642號,,一般旅館,"{""_id"": 431, ""_importdate"": {""date"": ""2025-12-29 11:10:45.486448"", ""timezone_type"": 3, ""timezone"": ""Asia/Taipei""}, ""縣市代碼"": ""63000"", ""專用標識編號"": ""臺北市旅館642號"", ""旅館名稱"": ""慶爾喜旅館長沙二館"", ""電話或手機號碼"": ""(02)77309920"", ""營業地址"": ""108臺北市萬華區長沙街二段11號3樓之1"", ""客房最低定價"": ""10000"", ""客房最高定價"": ""10000"", ""房間數"": ""6""}"
懷特豪斯青年旅舍,105臺北市松山區南京東路五段123巷1號1至4樓、1之1號2至4樓、1之2號2至4樓,,,臺北市旅館664號,,一般旅館,"{""_id"": 449, ""_importdate"": {""date"": ""2025-12-29 11:10:45.505497"", ""timezone_type"": 3, ""timezone"": ""Asia/Taipei""}, ""縣市代碼"": ""63000"", ""專用標識編號"": ""臺北市旅館664號"", ""旅館名稱"": ""懷特豪斯青年旅舍"", ""電話或手機號碼"": ""(02)37656578"", ""營業地址"": ""105臺北市松山區南京東路五段123巷1號1至4樓、1之1號2至4樓、1之2號2至4樓"", ""客房最低定價"": ""7500"", ""客房最高定價"": ""26000"", ""房間數"": ""38""}"
成都壹壹壹商旅,108臺北市萬華區成都路111號1樓-6樓,25.0432860,121.5041310,臺北市旅館773號,,一般旅館,"{""_id"": 541, ""_importdate"": {""date"": ""2025-12-29 11:10:45.604101"", ""timezone_type"": 3, ""timezone"": ""Asia/Taipei""}, ""縣市代碼"": ""63000"", ""專用標識編號"": ""臺北市旅館773號"", ""旅館名稱"": ""成都壹壹壹商旅"", ""電話或手機號碼"": ""(02)23751022"", ""營業地址"": ""108臺北市萬華區成都路111號1樓-6樓"", ""客房最低定價"": ""12880"", ""客房最高定價"": ""29800"", ""房間數"": ""11""}"
所在行旅,100臺北市中正區忠孝西路一段50號 24樓之6,25.0464330,121.5157930,臺北市旅館724號,,一般旅館,"{""_id"": 496, ""_importdate"": {""date"": ""2025-12-29 11:10:45.554970"", ""timezone_type"": 3, ""timezone"": ""Asia/Taipei""}, ""縣市代碼"": ""63000"", ""專用標識編號"": ""臺北市旅館724號"", ""旅館名稱"": ""所在行旅"", ""電話或手機號碼"": ""(02)77552077"", ""營業地址"": ""100臺北市中正區忠孝西路一段50號 24樓之6"", ""客房最低定價"": ""800"", ""客房最高定價"": ""12000"", ""房間數"": ""2""}"
承攜行旅台北信義館,110臺北市信義區基隆路二段15-2號,25.0245670,121.5535460,臺北市旅館394號,,一般旅館,"{""_id"": 246, ""_importdate"": {""date"": ""2025-12-29 11:10:45.271029"", ""timezone_type"": 3, ""timezone"": ""Asia/Taipei""}, ""縣市代碼"": ""63000"", ""專用標識編號"": ""臺北市旅館394號"", ""旅館名稱"": ""承攜行旅台北信義館"", ""電話或手機號碼"": ""(02)23453511"", ""營業地址"": ""110臺北市信義區基隆路二段15-2號"", ""客房最低定價"": ""15000"", ""客房最高定價"": ""31680"", ""房間數"": ""20""}"
承攜行旅台北八德館,105臺北市松山區八德路四段213號1-7樓,25.0489710,121.5641200,臺北市旅館003號,,一般旅館,"{""_id"": 3, ""_importdate"": {""date"": ""2025-12-29 11:10:44.964885"", ""timezone_type"": 3, ""timezone"": ""Asia/Taipei""}, ""縣市代碼"": ""63000"", ""專用標識編號"": ""臺北市旅館003號"", ""旅館名稱"": ""承攜行旅台北八德館"", ""電話或手機號碼"": ""(02)27425575"", ""營業地址"": ""105臺北市松山區八德路四段213號1-7樓"", ""客房最低定價"": ""12000"", ""客房最高定價"": ""16000"", ""房間數"": ""76""}"
承攜行旅台北台大館,100臺北市中正區羅斯福路三段98號1-8樓,25.0161070,121.5328350,臺北市旅館082號,,一般旅館,"{""_id"": 44, ""_importdate"": {""date"": ""2025-12-29 11:10:45.018179"", ""timezone_type"": 3, ""timezone"": ""Asia/Taipei""}, ""縣市代碼"": ""63000"", ""專用標識編號"": ""臺北市旅館082號"", ""旅館名稱"": ""承攜行旅台北台大館"", ""電話或手機號碼"": ""(02)23657367"", ""營業地址"": ""100臺北市中正區羅斯福路三段98號1-8樓"", ""客房最低定價"": ""13800"", ""客房最高定價"": ""18800"", ""房間數"": ""35""}"
承攜行旅台北復北館,105臺北市松山區復興北路307號1至7樓,25.0585840,121.5444010,臺北市旅館485號,,一般旅館,"{""_id"": 318, ""_importdate"": {""date"": ""2025-12-29 11:10:45.361063"", ""timezone_type"": 3, ""timezone"": ""Asia/Taipei""}, ""縣市代碼"": ""63000"", ""專用標識編號"": ""臺北市旅館485號"", ""旅館名稱"": ""承攜行旅台北復北館"", ""電話或手機號碼"": ""(02)27122155"", ""營業地址"": ""105臺北市松山區復興北路307號1至7樓"", ""客房最低定價"": ""18000"", ""客房最高定價"": ""22000"", ""房間數"": ""65""}"
承攜行旅台北重慶館,103臺北市大同區重慶北路一段62號1、4至10樓,25.0510190,121.5124700,臺北市旅館131號,,一般旅館,"{""_id"": 80, ""_importdate"": {""date"": ""2025-12-29 11:10:45.066529"", ""timezone_type"": 3, ""timezone"": ""Asia/Taipei""}, ""縣市代碼"": ""63000"", ""專用標識編號"": ""臺北市旅館131號"", ""旅館名稱"": ""承攜行旅台北重慶館"", ""電話或手機號碼"": ""(02)25580551"", ""營業地址"": ""103臺北市大同區重慶北路一段62號1、4至10樓"", ""客房最低定價"": ""7200"", ""客房最高定價"": ""18000"", ""房間數"": ""168""}"
拉開門輕旅,100臺北市中正區紹興北街8號4樓之1至4樓之3,,,臺北市旅館666號,,一般旅館,"{""_id"": 451, ""_importdate"": {""date"": ""2025-12-29 11:10:45.507676"", ""timezone_type"": 3, ""timezone"": ""Asia/Taipei""}, ""縣市代碼"": ""63000"", ""專用標識編號"": ""臺北市旅館666號"", ""旅館名稱"": ""拉開門輕旅"", ""電話或手機號碼"": ""(02)66044400、 0908-840039"", ""營業地址"": ""100臺北市中正區紹興北街8號4樓之1至4樓之3"", ""客房最低定價"": ""700"", ""客房最高定價"": ""3000"", ""房間數"": ""6""}"
拾光行旅,103臺北市大同區延平北路二段255號2樓,25.0624660,121.5116670,臺北市旅館471號,,一般旅館,"{""_id"": 308, ""_importdate"": {""date"": ""2025-12-29 11:10:45.348115"", ""timezone_type"": 3, ""timezone"": ""Asia/Taipei""}, ""縣市代碼"": ""63000"", ""專用標識編號"": ""臺北市旅館471號"", ""旅館名稱"": ""拾光行旅"", ""電話或手機號碼"": ""(02)25574999"", ""營業地址"": ""103臺北市大同區延平北路二段255號2樓"", ""客房最低定價"": ""8000"", ""客房最高定價"": ""10000"", ""房間數"": ""49""}"
捷絲旅臺大尊賢館,106臺北市大安區羅斯福路4段83號1-10樓,25.0191780,121.5305950,臺北市旅館802號,,一般旅館,"{""_id"": 570, ""_importdate"": {""date"": ""2025-12-29 11:10:45.645083"", ""timezone_type"": 3, ""timezone"": ""Asia/Taipei""}, ""縣市代碼"": ""63000"", ""專用標識編號"": ""臺北市旅館802號"", ""旅館名稱"": ""捷絲旅臺大尊賢館"", ""電話或手機號碼"": ""(02)77355088"", ""營業地址"": ""106臺北市大安區羅斯福路4段83號1-10樓"", ""客房最低定價"": ""12100"", ""客房最高定價"": ""17600"", ""房間數"": ""76""}"
捷絲旅西門町店,100臺北市中正區中華路一段41號5-9樓,25.0448060,121.5315560,臺北市旅館348號,,一般旅館,"{""_id"": 217, ""_importdate"": {""date"": ""2025-12-29 11:10:45.233059"", ""timezone_type"": 3, ""timezone"": ""Asia/Taipei""}, ""縣市代碼"": ""63000"", ""專用標識編號"": ""臺北市旅館348號"", ""旅館名稱"": ""捷絲旅西門町店"", ""電話或手機號碼"": ""(02)23709000"", ""營業地址"": ""100臺北市中正區中華路一段41號5-9樓"", ""客房最低定價"": ""3200"", ""客房最高定價"": ""10120"", ""房間數"": ""143""}"
